{
"type": "FeatureCollection",
"crs": { "type": "name", "properties": { "name": "urn:ogc:def:crs:OGC:1.3:CRS84" } },
                                                                                
"features": [
{ "type": "Feature", "properties": { "RCDTS": "431020690022001", "School": "Germantown Hills Middle School", "City": "Germantown Hills", "demSCHOOLlow": 10.0, "ISAT13": 81.6, "PSAE13": " ", "ACT13": " ", "LATITUDE": 40.768857, "LONGITUDE": -89.450256 }, "geometry": { "type": "Point", "coordinates": [ -89.450256, 40.768857 ] } },
{ "type": "Feature", "properties": { "RCDTS": "190222040261006", "School": "Scullen Middle School", "City": "Naperville", "demSCHOOLlow": 10.1, "ISAT13": 82.2, "PSAE13": " ", "ACT13": " ", "LATITUDE": 41.696577, "LONGITUDE": -88.211854 }, "geometry": { "type": "Point", "coordinates": [ -88.211854, 41.696577 ] } },
{ "type": "Feature", "properties": { "RCDTS": "450670040260001", "School": "Columbia High School", "City": "Columbia", "demSCHOOLlow": 10.1, "ISAT13": " ", "PSAE13": 61.4, "ACT13": 21.2, "LATITUDE": 38.44962, "LONGITUDE": -90.21597 }, "geometry": { "type": "Point", "coordinates": [ -90.21597, 38.44962 ] } },
{ "type": "Feature", "properties": { "RCDTS": "050160540042027", "School": "Herbert Hoover Elem  School", "City": "Schaumburg", "demSCHOOLlow": 10.2, "ISAT13": 87.5, "PSAE13": " ", "ACT13": " ", "LATITUDE": 42.033052916, "LONGITUDE": -88.119044963 }, "geometry": { "type": "Point", "coordinates": [ -88.119044963, 42.033052916 ] } },
{ "type": "Feature", "properties": { "RCDTS": "56099033C042007", "School": "William J Butler School", "City": "Lockport", "demSCHOOLlow": 10.2, "ISAT13": 71.0, "PSAE13": " ", "ACT13": " ", "LATITUDE": 41.581545, "LONGITUDE": -88.025733 }, "geometry": { "type": "Point", "coordinates": [ -88.025733, 41.581545 ] } },
{ "type": "Feature", "properties": { "RCDTS": "530907020261001", "School": "Tremont Middle School", "City": "Tremont", "demSCHOOLlow": 10.3, "ISAT13": 77.9, "PSAE13": " ", "ACT13": " ", "LATITUDE": 40.52807, "LONGITUDE": -89.495794 }, "geometry": { "type": "Point", "coordinates": [ -89.495794, 40.52807 ] } },
{ "type": "Feature", "properties": { "RCDTS": "310451010222003", "School": "Alice Gustafson Elem School", "City": "Batavia", "demSCHOOLlow": 10.3, "ISAT13": 76.4, "PSAE13": " ", "ACT13": " ", "LATITUDE": 41.837821, "LONGITUDE": -88.321629 }, "geometry": { "type": "Point", "coordinates": [ -88.321629, 41.837821 ] } },
{ "type": "Feature", "properties": { "RCDTS": "150162990252183", "School": "Edgebrook Elem School", "City": "Chicago", "demSCHOOLlow": 10.4, "ISAT13": 87.0, "PSAE13": " ", "ACT13": " ", "LATITUDE": 41.999296, "LONGITUDE": -87.761745 }, "geometry": { "type": "Point", "coordinates": [ -87.761745, 41.999296 ] } },
{ "type": "Feature", "properties": { "RCDTS": "530907020262003", "School": "Tremont Elem School", "City": "Tremont", "demSCHOOLlow": 10.6, "ISAT13": 86.0, "PSAE13": " ", "ACT13": " ", "LATITUDE": 40.526081, "LONGITUDE": -89.48976 }, "geometry": { "type": "Point", "coordinates": [ -89.48976, 40.526081 ] } },
{ "type": "Feature", "properties": { "RCDTS": "050160640042005", "School": "Franklin Elementary School", "City": "Park Ridge", "demSCHOOLlow": 10.6, "ISAT13": 85.0, "PSAE13": " ", "ACT13": " ", "LATITUDE": 42.032171, "LONGITUDE": -87.856903 }, "geometry": { "type": "Point", "coordinates": [ -87.856903, 42.032171 ] } },
{ "type": "Feature", "properties": { "RCDTS": "310453020262007", "School": "Kaneland John Shields Elem Sch", "City": "Sugar Grove", "demSCHOOLlow": 10.6, "ISAT13": 72.5, "PSAE13": " ", "ACT13": " ", "LATITUDE": 41.762129, "LONGITUDE": -88.443805 }, "geometry": { "type": "Point", "coordinates": [ -88.443805, 41.762129 ] } },
{ "type": "Feature", "properties": { "RCDTS": "240471150260001", "School": "Yorkville High School", "City": "Yorkville", "demSCHOOLlow": 10.6, "ISAT13": " ", "PSAE13": 52.0, "ACT13": 20.5, "LATITUDE": 41.651827, "LONGITUDE": -88.451224 }, "geometry": { "type": "Point", "coordinates": [ -88.451224, 41.651827 ] } },
{ "type": "Feature", "properties": { "RCDTS": "050160540042015", "School": "Nathan Hale Elem School", "City": "Schaumburg", "demSCHOOLlow": 10.7, "ISAT13": 80.0, "PSAE13": " ", "ACT13": " ", "LATITUDE": 42.004193, "LONGITUDE": -88.112263 }, "geometry": { "type": "Point", "coordinates": [ -88.112263, 42.004193 ] } },
{ "type": "Feature", "properties": { "RCDTS": "340491270160002", "School": "Grayslake North High School", "City": "Grayslake", "demSCHOOLlow": 10.7, "ISAT13": " ", "PSAE13": 66.4, "ACT13": 21.9, "LATITUDE": 42.321291, "LONGITUDE": -88.015191 }, "geometry": { "type": "Point", "coordinates": [ -88.015191, 42.321291 ] } },
{ "type": "Feature", "properties": { "RCDTS": "480723230262004", "School": "Banner Elementary School", "City": "Dunlap", "demSCHOOLlow": 10.8, "ISAT13": 87.2, "PSAE13": " ", "ACT13": " ", "LATITUDE": 40.841378, "LONGITUDE": -89.62904 }, "geometry": { "type": "Point", "coordinates": [ -89.62904, 40.841378 ] } },
{ "type": "Feature", "properties": { "RCDTS": "100110040262001", "School": "Edinburg Elem School", "City": "Edinburg", "demSCHOOLlow": 10.8, "ISAT13": 62.0, "PSAE13": " ", "ACT13": " ", "LATITUDE": 39.659621, "LONGITUDE": -89.389652 }, "geometry": { "type": "Point", "coordinates": [ -89.389652, 39.659621 ] } },
{ "type": "Feature", "properties": { "RCDTS": "050162140170005", "School": "Prospect High School", "City": "Mt Prospect", "demSCHOOLlow": 10.8, "ISAT13": " ", "PSAE13": 81.1, "ACT13": 24.3, "LATITUDE": 42.080714971, "LONGITUDE": -87.94649609 }, "geometry": { "type": "Point", "coordinates": [ -87.94649609, 42.080714971 ] } },
{ "type": "Feature", "properties": { "RCDTS": "060161020022003", "School": "Forest Road Elem School", "City": "La Grange Park", "demSCHOOLlow": 10.9, "ISAT13": 76.3, "PSAE13": " ", "ACT13": " ", "LATITUDE": 41.830819, "LONGITUDE": -87.86789 }, "geometry": { "type": "Point", "coordinates": [ -87.86789, 41.830819 ] } },
{ "type": "Feature", "properties": { "RCDTS": "51084003A260001", "School": "Rochester High School", "City": "Rochester", "demSCHOOLlow": 10.9, "ISAT13": " ", "PSAE13": 72.1, "ACT13": 22.2, "LATITUDE": 39.751431, "LONGITUDE": -89.537869 }, "geometry": { "type": "Point", "coordinates": [ -89.537869, 39.751431 ] } },
{ "type": "Feature", "properties": { "RCDTS": "190222030262013", "School": "Steeple Run Elem School", "City": "Naperville", "demSCHOOLlow": 11.0, "ISAT13": 82.6, "PSAE13": " ", "ACT13": " ", "LATITUDE": 41.782008, "LONGITUDE": -88.105077 }, "geometry": { "type": "Point", "coordinates": [ -88.105077, 41.782008 ] } },
{ "type": "Feature", "properties": { "RCDTS": "190220580022004", "School": "Highland Elem School", "City": "Downers Grove", "demSCHOOLlow": 11.0, "ISAT13": 82.3, "PSAE13": " ", "ACT13": " ", "LATITUDE": 41.81538, "LONGITUDE": -88.010039 }, "geometry": { "type": "Point", "coordinates": [ -88.010039, 41.81538 ] } },
{ "type": "Feature", "properties": { "RCDTS": "560992020221004", "School": "Heritage Grove Middle School", "City": "Plainfield", "demSCHOOLlow": 11.0, "ISAT13": 81.2, "PSAE13": " ", "ACT13": " ", "LATITUDE": 41.656588, "LONGITUDE": -88.21225 }, "geometry": { "type": "Point", "coordinates": [ -88.21225, 41.656588 ] } },
{ "type": "Feature", "properties": { "RCDTS": "450670050262005", "School": "Gardner Elementary School", "City": "Waterloo", "demSCHOOLlow": 11.0, "ISAT13": 78.8, "PSAE13": " ", "ACT13": " ", "LATITUDE": 38.3108654, "LONGITUDE": -90.152231918 }, "geometry": { "type": "Point", "coordinates": [ -90.152231918, 38.3108654 ] } },
{ "type": "Feature", "properties": { "RCDTS": "190222030262018", "School": "Kingsley Elementary School", "City": "Naperville", "demSCHOOLlow": 11.0, "ISAT13": 78.4, "PSAE13": " ", "ACT13": " ", "LATITUDE": 41.720912, "LONGITUDE": -88.136634 }, "geometry": { "type": "Point", "coordinates": [ -88.136634, 41.720912 ] } },
{ "type": "Feature", "properties": { "RCDTS": "190220130022002", "School": "Dujardin Elementary School", "City": "Bloomingdale", "demSCHOOLlow": 11.0, "ISAT13": 78.2, "PSAE13": " ", "ACT13": " ", "LATITUDE": 41.951872, "LONGITUDE": -88.065038 }, "geometry": { "type": "Point", "coordinates": [ -88.065038, 41.951872 ] } },
{ "type": "Feature", "properties": { "RCDTS": "340491280160004", "School": "Vernon Hills High School", "City": "Vernon Hills", "demSCHOOLlow": 11.0, "ISAT13": " ", "PSAE13": 82.2, "ACT13": 24.7, "LATITUDE": 42.228131, "LONGITUDE": -87.951439 }, "geometry": { "type": "Point", "coordinates": [ -87.951439, 42.228131 ] } },
{ "type": "Feature", "properties": { "RCDTS": "340491020042003", "School": "Tripp School", "City": "Buffalo Grove", "demSCHOOLlow": 11.1, "ISAT13": 84.0, "PSAE13": " ", "ACT13": " ", "LATITUDE": 42.168189, "LONGITUDE": -87.95454 }, "geometry": { "type": "Point", "coordinates": [ -87.95454, 42.168189 ] } },
{ "type": "Feature", "properties": { "RCDTS": "190222040262025", "School": "Owen Elementary School", "City": "Naperville", "demSCHOOLlow": 11.1, "ISAT13": 80.8, "PSAE13": " ", "ACT13": " ", "LATITUDE": 41.741605, "LONGITUDE": -88.153554 }, "geometry": { "type": "Point", "coordinates": [ -88.153554, 41.741605 ] } },
{ "type": "Feature", "properties": { "RCDTS": "310453030262008", "School": "Wasco Elem School", "City": "Wasco", "demSCHOOLlow": 11.1, "ISAT13": 77.3, "PSAE13": " ", "ACT13": " ", "LATITUDE": 41.93707, "LONGITUDE": -88.403261 }, "geometry": { "type": "Point", "coordinates": [ -88.403261, 41.93707 ] } },
{ "type": "Feature", "properties": { "RCDTS": "310453010261002", "School": "Prairie Knolls Middle Sch", "City": "Elgin", "demSCHOOLlow": 11.2, "ISAT13": 77.5, "PSAE13": " ", "ACT13": " ", "LATITUDE": 42.0116, "LONGITUDE": -88.3886 }, "geometry": { "type": "Point", "coordinates": [ -88.3886, 42.0116 ] } },
{ "type": "Feature", "properties": { "RCDTS": "050160570021004", "School": "Lincoln Middle School", "City": "Mt Prospect", "demSCHOOLlow": 11.3, "ISAT13": 79.0, "PSAE13": " ", "ACT13": " ", "LATITUDE": 42.059339901, "LONGITUDE": -87.946486354 }, "geometry": { "type": "Point", "coordinates": [ -87.946486354, 42.059339901 ] } },
{ "type": "Feature", "properties": { "RCDTS": "190220660022004", "School": "Prairieview Elementary School", "City": "Downers Grove", "demSCHOOLlow": 11.3, "ISAT13": 76.9, "PSAE13": " ", "ACT13": " ", "LATITUDE": 41.739143, "LONGITUDE": -87.998251 }, "geometry": { "type": "Point", "coordinates": [ -87.998251, 41.739143 ] } },
{ "type": "Feature", "properties": { "RCDTS": "050160740022003", "School": "Rutledge Hall Elem School", "City": "Lincolnwood", "demSCHOOLlow": 11.3, "ISAT13": 75.9, "PSAE13": " ", "ACT13": " ", "LATITUDE": 42.005605, "LONGITUDE": -87.726677 }, "geometry": { "type": "Point", "coordinates": [ -87.726677, 42.005605 ] } },
{ "type": "Feature", "properties": { "RCDTS": "170640030260002", "School": "Tri-Valley High School", "City": "Downs", "demSCHOOLlow": 11.3, "ISAT13": " ", "PSAE13": 72.2, "ACT13": 23.9, "LATITUDE": 40.396347, "LONGITUDE": -88.866856 }, "geometry": { "type": "Point", "coordinates": [ -88.866856, 40.396347 ] } },
{ "type": "Feature", "properties": { "RCDTS": "190220580022007", "School": "Kingsley Elem School", "City": "Downers Grove", "demSCHOOLlow": 11.4, "ISAT13": 75.1, "PSAE13": " ", "ACT13": " ", "LATITUDE": 41.769523, "LONGITUDE": -88.01647 }, "geometry": { "type": "Point", "coordinates": [ -88.01647, 41.769523 ] } },
{ "type": "Feature", "properties": { "RCDTS": "510840150261001", "School": "Williamsville Jr High School", "City": "Williamsville", "demSCHOOLlow": 11.4, "ISAT13": 71.3, "PSAE13": " ", "ACT13": " ", "LATITUDE": 39.949741, "LONGITUDE": -89.549772 }, "geometry": { "type": "Point", "coordinates": [ -89.549772, 39.949741 ] } },
{ "type": "Feature", "properties": { "RCDTS": "240471150262004", "School": "Bristol Grade School", "City": "Bristol", "demSCHOOLlow": 11.5, "ISAT13": 67.6, "PSAE13": " ", "ACT13": " ", "LATITUDE": 41.689304, "LONGITUDE": -88.429318 }, "geometry": { "type": "Point", "coordinates": [ -88.429318, 41.689304 ] } },
{ "type": "Feature", "properties": { "RCDTS": "070162300130001", "School": "Carl Sandburg High School", "City": "Orland Park", "demSCHOOLlow": 11.5, "ISAT13": " ", "PSAE13": 69.2, "ACT13": 22.8, "LATITUDE": 41.648596, "LONGITUDE": -87.854047 }, "geometry": { "type": "Point", "coordinates": [ -87.854047, 41.648596 ] } },
{ "type": "Feature", "properties": { "RCDTS": "310451010221002", "School": "Sam Rotolo Middle Sch", "City": "Batavia", "demSCHOOLlow": 11.6, "ISAT13": 76.3, "PSAE13": " ", "ACT13": " ", "LATITUDE": 41.865201259, "LONGITUDE": -88.293565489 }, "geometry": { "type": "Point", "coordinates": [ -88.293565489, 41.865201259 ] } },
{ "type": "Feature", "properties": { "RCDTS": "56099033C041001", "School": "Homer Jr High School", "City": "Homer Glen", "demSCHOOLlow": 11.6, "ISAT13": 73.9, "PSAE13": " ", "ACT13": " ", "LATITUDE": 41.603706, "LONGITUDE": -87.927649 }, "geometry": { "type": "Point", "coordinates": [ -87.927649, 41.603706 ] } },
{ "type": "Feature", "properties": { "RCDTS": "07016113A021002", "School": "Old Quarry Middle Sch", "City": "Lemont", "demSCHOOLlow": 11.6, "ISAT13": 73.3, "PSAE13": " ", "ACT13": " ", "LATITUDE": 41.656389, "LONGITUDE": -88.010562 }, "geometry": { "type": "Point", "coordinates": [ -88.010562, 41.656389 ] } },
{ "type": "Feature", "properties": { "RCDTS": "500821130021001", "School": "Wolf Branch Middle School", "City": "Swansea", "demSCHOOLlow": 11.6, "ISAT13": 71.8, "PSAE13": " ", "ACT13": " ", "LATITUDE": 38.554861, "LONGITUDE": -89.994705 }, "geometry": { "type": "Point", "coordinates": [ -89.994705, 38.554861 ] } },
{ "type": "Feature", "properties": { "RCDTS": "160194290260003", "School": "Hinckley-Big Rock High School", "City": "Hinckley", "demSCHOOLlow": 11.6, "ISAT13": " ", "PSAE13": 70.7, "ACT13": 21.3, "LATITUDE": 41.769338, "LONGITUDE": -88.631422 }, "geometry": { "type": "Point", "coordinates": [ -88.631422, 41.769338 ] } },
{ "type": "Feature", "properties": { "RCDTS": "440631570160001", "School": "Richmond-Burton High School", "City": "Richmond", "demSCHOOLlow": 11.6, "ISAT13": " ", "PSAE13": 61.6, "ACT13": 22.0, "LATITUDE": 42.449477, "LONGITUDE": -88.305851 }, "geometry": { "type": "Point", "coordinates": [ -88.305851, 42.449477 ] } },
{ "type": "Feature", "properties": { "RCDTS": "050160340042005", "School": "Pleasant Ridge Elem School", "City": "Glenview", "demSCHOOLlow": 11.7, "ISAT13": 84.6, "PSAE13": " ", "ACT13": " ", "LATITUDE": 42.087462, "LONGITUDE": -87.790637 }, "geometry": { "type": "Point", "coordinates": [ -87.790637, 42.087462 ] } },
{ "type": "Feature", "properties": { "RCDTS": "340491020042005", "School": "Meridian Middle School", "City": "Buffalo Grove", "demSCHOOLlow": 11.8, "ISAT13": 85.0, "PSAE13": " ", "ACT13": " ", "LATITUDE": 42.189988, "LONGITUDE": -87.95779 }, "geometry": { "type": "Point", "coordinates": [ -87.95779, 42.189988 ] } },
{ "type": "Feature", "properties": { "RCDTS": "050160540042005", "School": "Campanelli Elem School", "City": "Schaumburg", "demSCHOOLlow": 11.8, "ISAT13": 82.9, "PSAE13": " ", "ACT13": " ", "LATITUDE": 42.01966, "LONGITUDE": -88.119213 }, "geometry": { "type": "Point", "coordinates": [ -88.119213, 42.01966 ] } },
{ "type": "Feature", "properties": { "RCDTS": "530907090262004", "School": "Lettie Brown Elementary School", "City": "Morton", "demSCHOOLlow": 11.8, "ISAT13": 82.3, "PSAE13": " ", "ACT13": " ", "LATITUDE": 40.644864, "LONGITUDE": -89.464391 }, "geometry": { "type": "Point", "coordinates": [ -89.464391, 40.644864 ] } },
{ "type": "Feature", "properties": { "RCDTS": "560992100160003", "School": "Lincoln-Way North High School", "City": "Frankfort", "demSCHOOLlow": 11.8, "ISAT13": " ", "PSAE13": 76.0, "ACT13": 22.2, "LATITUDE": 41.528082, "LONGITUDE": -87.790421 }, "geometry": { "type": "Point", "coordinates": [ -87.790421, 41.528082 ] } },
{ "type": "Feature", "properties": { "RCDTS": "340491270160001", "School": "Grayslake Central High School", "City": "Grayslake", "demSCHOOLlow": 11.8, "ISAT13": " ", "PSAE13": 70.8, "ACT13": 22.7, "LATITUDE": 42.349392984, "LONGITUDE": -88.043811975 }, "geometry": { "type": "Point", "coordinates": [ -88.043811975, 42.349392984 ] } },
{ "type": "Feature", "properties": { "RCDTS": "340492200262004", "School": "Grove Avenue Elem School", "City": "Barrington", "demSCHOOLlow": 11.9, "ISAT13": 89.9, "PSAE13": " ", "ACT13": " ", "LATITUDE": 42.14292, "LONGITUDE": -88.13291 }, "geometry": { "type": "Point", "coordinates": [ -88.13291, 42.14292 ] } },
{ "type": "Feature", "properties": { "RCDTS": "060161020021004", "School": "Park Junior High School", "City": "La Grange Park", "demSCHOOLlow": 11.9, "ISAT13": 76.3, "PSAE13": " ", "ACT13": " ", "LATITUDE": 41.820447, "LONGITUDE": -87.881013 }, "geometry": { "type": "Point", "coordinates": [ -87.881013, 41.820447 ] } },
{ "type": "Feature", "properties": { "RCDTS": "450670040261001", "School": "Columbia Middle School", "City": "Columbia", "demSCHOOLlow": 11.9, "ISAT13": 75.6, "PSAE13": " ", "ACT13": " ", "LATITUDE": 38.446584, "LONGITUDE": -90.21611 }, "geometry": { "type": "Point", "coordinates": [ -90.21611, 38.446584 ] } },
{ "type": "Feature", "properties": { "RCDTS": "050162110170002", "School": "Wm Fremd High School", "City": "Palatine", "demSCHOOLlow": 11.9, "ISAT13": " ", "PSAE13": 79.2, "ACT13": 24.9, "LATITUDE": 42.092705, "LONGITUDE": -88.063234 }, "geometry": { "type": "Point", "coordinates": [ -88.063234, 42.092705 ] } },
{ "type": "Feature", "properties": { "RCDTS": "560992020220003", "School": "Plainfield North High School", "City": "Plainfield", "demSCHOOLlow": 11.9, "ISAT13": " ", "PSAE13": 68.2, "ACT13": 22.2, "LATITUDE": 41.663941, "LONGITUDE": -88.223459 }, "geometry": { "type": "Point", "coordinates": [ -88.223459, 41.663941 ] } },
{ "type": "Feature", "properties": { "RCDTS": "190220410022002", "School": "Benjamin Franklin Elem School", "City": "Glen Ellyn", "demSCHOOLlow": 12.0, "ISAT13": 88.6, "PSAE13": " ", "ACT13": " ", "LATITUDE": 41.872387, "LONGITUDE": -88.052888 }, "geometry": { "type": "Point", "coordinates": [ -88.052888, 41.872387 ] } },
{ "type": "Feature", "properties": { "RCDTS": "56099207U262004", "School": "Wilton Center Elem School", "City": "Manhattan", "demSCHOOLlow": 12.0, "ISAT13": 78.3, "PSAE13": " ", "ACT13": " ", "LATITUDE": 41.351086, "LONGITUDE": -87.959609 }, "geometry": { "type": "Point", "coordinates": [ -87.959609, 41.351086 ] } },
{ "type": "Feature", "properties": { "RCDTS": "560992030042001", "School": "Elwood C C School", "City": "Elwood", "demSCHOOLlow": 12.0, "ISAT13": 59.3, "PSAE13": " ", "ACT13": " ", "LATITUDE": 41.407308, "LONGITUDE": -88.111806 }, "geometry": { "type": "Point", "coordinates": [ -88.111806, 41.407308 ] } },
{ "type": "Feature", "properties": { "RCDTS": "190220620021001", "School": "Gower Middle School", "City": "Burr Ridge", "demSCHOOLlow": 12.1, "ISAT13": 82.0, "PSAE13": " ", "ACT13": " ", "LATITUDE": 41.744533, "LONGITUDE": -87.934741 }, "geometry": { "type": "Point", "coordinates": [ -87.934741, 41.744533 ] } },
{ "type": "Feature", "properties": { "RCDTS": "510840050260001", "School": "Glenwood High School", "City": "Chatham", "demSCHOOLlow": 12.1, "ISAT13": " ", "PSAE13": 69.1, "ACT13": 22.2, "LATITUDE": 39.687866, "LONGITUDE": -89.688561 }, "geometry": { "type": "Point", "coordinates": [ -89.688561, 39.687866 ] } },
{ "type": "Feature", "properties": { "RCDTS": "190220620022002", "School": "Gower West Elem School", "City": "Willowbrook", "demSCHOOLlow": 12.2, "ISAT13": 84.5, "PSAE13": " ", "ACT13": " ", "LATITUDE": 41.749286, "LONGITUDE": -87.954372 }, "geometry": { "type": "Point", "coordinates": [ -87.954372, 41.749286 ] } },
{ "type": "Feature", "properties": { "RCDTS": "440631550160003", "School": "Crystal Lake South High School", "City": "Crystal Lake", "demSCHOOLlow": 12.2, "ISAT13": " ", "PSAE13": 67.6, "ACT13": 22.0, "LATITUDE": 42.207321, "LONGITUDE": -88.337174 }, "geometry": { "type": "Point", "coordinates": [ -88.337174, 42.207321 ] } },
{ "type": "Feature", "properties": { "RCDTS": "340492200262006", "School": "Roslyn Road Elem School", "City": "Barrington", "demSCHOOLlow": 12.3, "ISAT13": 92.0, "PSAE13": " ", "ACT13": " ", "LATITUDE": 42.165098, "LONGITUDE": -88.139627 }, "geometry": { "type": "Point", "coordinates": [ -88.139627, 42.165098 ] } },
{ "type": "Feature", "properties": { "RCDTS": "310453020262009", "School": "Kaneland Blackberry Creek Elem", "City": "Elburn", "demSCHOOLlow": 12.3, "ISAT13": 73.0, "PSAE13": " ", "ACT13": " ", "LATITUDE": 41.87707, "LONGITUDE": -88.456119 }, "geometry": { "type": "Point", "coordinates": [ -88.456119, 41.87707 ] } },
{ "type": "Feature", "properties": { "RCDTS": "560992020221006", "School": "Richard Ira Jones Middle School", "City": "Plainfield", "demSCHOOLlow": 12.4, "ISAT13": 72.9, "PSAE13": " ", "ACT13": " ", "LATITUDE": 41.60505, "LONGITUDE": -88.222341 }, "geometry": { "type": "Point", "coordinates": [ -88.222341, 41.60505 ] } },
{ "type": "Feature", "properties": { "RCDTS": "190222000262013", "School": "Whittier Elem School", "City": "Wheaton", "demSCHOOLlow": 12.5, "ISAT13": 84.9, "PSAE13": " ", "ACT13": " ", "LATITUDE": 41.85764, "LONGITUDE": -88.108468 }, "geometry": { "type": "Point", "coordinates": [ -88.108468, 41.85764 ] } },
{ "type": "Feature", "properties": { "RCDTS": "150162990252082", "School": "Bell Elem School", "City": "Chicago", "demSCHOOLlow": 12.6, "ISAT13": 90.4, "PSAE13": " ", "ACT13": " ", "LATITUDE": 41.949176, "LONGITUDE": -87.685904 }, "geometry": { "type": "Point", "coordinates": [ -87.685904, 41.949176 ] } },
{ "type": "Feature", "properties": { "RCDTS": "440631550160002", "School": "Cary-Grove Community High School", "City": "Cary", "demSCHOOLlow": 12.6, "ISAT13": " ", "PSAE13": 75.8, "ACT13": 23.4, "LATITUDE": 42.220893, "LONGITUDE": -88.242114 }, "geometry": { "type": "Point", "coordinates": [ -88.242114, 42.220893 ] } },
{ "type": "Feature", "properties": { "RCDTS": "340491170160002", "School": "Lakes Community High School", "City": "Lake Villa", "demSCHOOLlow": 12.6, "ISAT13": " ", "PSAE13": 75.5, "ACT13": 22.5, "LATITUDE": 42.446266, "LONGITUDE": -88.062412 }, "geometry": { "type": "Point", "coordinates": [ -88.062412, 42.446266 ] } },
{ "type": "Feature", "properties": { "RCDTS": "150162990252314", "School": "Lincoln Elem School", "City": "Chicago", "demSCHOOLlow": 12.7, "ISAT13": 90.3, "PSAE13": " ", "ACT13": " ", "LATITUDE": 41.924583, "LONGITUDE": -87.64426 }, "geometry": { "type": "Point", "coordinates": [ -87.64426, 41.924583 ] } },
{ "type": "Feature", "properties": { "RCDTS": "050160540042010", "School": "Fairview Elem School", "City": "Hoffman Estates", "demSCHOOLlow": 12.7, "ISAT13": 88.8, "PSAE13": " ", "ACT13": " ", "LATITUDE": 42.040179, "LONGITUDE": -88.070665 }, "geometry": { "type": "Point", "coordinates": [ -88.070665, 42.040179 ] } },
{ "type": "Feature", "properties": { "RCDTS": "480723230261002", "School": "Dunlap Valley Middle School", "City": "Dunlap", "demSCHOOLlow": 12.7, "ISAT13": 84.0, "PSAE13": " ", "ACT13": " ", "LATITUDE": 40.849129, "LONGITUDE": -89.678566 }, "geometry": { "type": "Point", "coordinates": [ -89.678566, 40.849129 ] } },
{ "type": "Feature", "properties": { "RCDTS": "030250500261001", "School": "Teutopolis Junior High School", "City": "Teutopolis", "demSCHOOLlow": 12.7, "ISAT13": 77.2, "PSAE13": " ", "ACT13": " ", "LATITUDE": 39.133737, "LONGITUDE": -88.484246 }, "geometry": { "type": "Point", "coordinates": [ -88.484246, 39.133737 ] } },
{ "type": "Feature", "properties": { "RCDTS": "190220580021015", "School": "O Neill Middle School", "City": "Downers Grove", "demSCHOOLlow": 12.7, "ISAT13": 72.3, "PSAE13": " ", "ACT13": " ", "LATITUDE": 41.780433, "LONGITUDE": -88.000354 }, "geometry": { "type": "Point", "coordinates": [ -88.000354, 41.780433 ] } },
{ "type": "Feature", "properties": { "RCDTS": "070161350022013", "School": "Meadow Ridge School", "City": "Orland Park", "demSCHOOLlow": 12.8, "ISAT13": 79.5, "PSAE13": " ", "ACT13": " ", "LATITUDE": 41.600756, "LONGITUDE": -87.885487 }, "geometry": { "type": "Point", "coordinates": [ -87.885487, 41.600756 ] } },
{ "type": "Feature", "properties": { "RCDTS": "310453010261001", "School": "Central Middle School", "City": "Burlington", "demSCHOOLlow": 12.8, "ISAT13": 75.7, "PSAE13": " ", "ACT13": " ", "LATITUDE": 42.014965, "LONGITUDE": -88.485276 }, "geometry": { "type": "Point", "coordinates": [ -88.485276, 42.014965 ] } },
{ "type": "Feature", "properties": { "RCDTS": "060160960021004", "School": "L J Hauser Jr High School", "City": "Riverside", "demSCHOOLlow": 12.8, "ISAT13": 72.9, "PSAE13": " ", "ACT13": " ", "LATITUDE": 41.829148, "LONGITUDE": -87.820189 }, "geometry": { "type": "Point", "coordinates": [ -87.820189, 41.829148 ] } },
{ "type": "Feature", "properties": { "RCDTS": "240471150262007", "School": "Grande Reserve Elem Sch", "City": "Yorkville", "demSCHOOLlow": 12.8, "ISAT13": 68.6, "PSAE13": " ", "ACT13": " ", "LATITUDE": 41.688, "LONGITUDE": -88.4005 }, "geometry": { "type": "Point", "coordinates": [ -88.4005, 41.688 ] } },
{ "type": "Feature", "properties": { "RCDTS": "390740250260001", "School": "Monticello High School", "City": "Monticello", "demSCHOOLlow": 12.8, "ISAT13": " ", "PSAE13": 65.8, "ACT13": 22.0, "LATITUDE": 40.01938, "LONGITUDE": -88.571971 }, "geometry": { "type": "Point", "coordinates": [ -88.571971, 40.01938 ] } },
{ "type": "Feature", "properties": { "RCDTS": "431020600260001", "School": "Roanoke-Benson High School", "City": "Roanoke", "demSCHOOLlow": 12.8, "ISAT13": " ", "PSAE13": 64.1, "ACT13": 20.9, "LATITUDE": 40.800841, "LONGITUDE": -89.198074 }, "geometry": { "type": "Point", "coordinates": [ -89.198074, 40.800841 ] } },
{ "type": "Feature", "properties": { "RCDTS": "150162990252805", "School": "Decatur Classical Elem School", "City": "Chicago", "demSCHOOLlow": 12.9, "ISAT13": 99.3, "PSAE13": " ", "ACT13": " ", "LATITUDE": 42.009347, "LONGITUDE": -87.704434 }, "geometry": { "type": "Point", "coordinates": [ -87.704434, 42.009347 ] } },
{ "type": "Feature", "properties": { "RCDTS": "340490700022007", "School": "Adler Park School", "City": "Libertyville", "demSCHOOLlow": 12.9, "ISAT13": 81.9, "PSAE13": " ", "ACT13": " ", "LATITUDE": 42.303207, "LONGITUDE": -87.958174 }, "geometry": { "type": "Point", "coordinates": [ -87.958174, 42.303207 ] } },
{ "type": "Feature", "properties": { "RCDTS": "070161350022001", "School": "High Point Elem School", "City": "Orland Park", "demSCHOOLlow": 12.9, "ISAT13": 78.6, "PSAE13": " ", "ACT13": " ", "LATITUDE": 41.620372, "LONGITUDE": -87.863096 }, "geometry": { "type": "Point", "coordinates": [ -87.863096, 41.620372 ] } },
{ "type": "Feature", "properties": { "RCDTS": "431021400262005", "School": "Goodfield Elem School", "City": "Goodfield", "demSCHOOLlow": 13.0, "ISAT13": 87.8, "PSAE13": " ", "ACT13": " ", "LATITUDE": 40.630617, "LONGITUDE": -89.275208 }, "geometry": { "type": "Point", "coordinates": [ -89.275208, 40.630617 ] } },
{ "type": "Feature", "properties": { "RCDTS": "050160150041011", "School": "Plum Grove Jr High School", "City": "Rolling Meadows", "demSCHOOLlow": 13.0, "ISAT13": 82.8, "PSAE13": " ", "ACT13": " ", "LATITUDE": 42.083072, "LONGITUDE": -88.043901 }, "geometry": { "type": "Point", "coordinates": [ -88.043901, 42.083072 ] } },
{ "type": "Feature", "properties": { "RCDTS": "310451010222006", "School": "Louise White Elem School", "City": "Batavia", "demSCHOOLlow": 13.0, "ISAT13": 79.6, "PSAE13": " ", "ACT13": " ", "LATITUDE": 41.859221, "LONGITUDE": -88.301513 }, "geometry": { "type": "Point", "coordinates": [ -88.301513, 41.859221 ] } },
{ "type": "Feature", "properties": { "RCDTS": "340490950261002", "School": "Lake Zurich Middle - N Campus", "City": "Hawthorn Woods", "demSCHOOLlow": 13.0, "ISAT13": 78.5, "PSAE13": " ", "ACT13": " ", "LATITUDE": 42.225432, "LONGITUDE": -88.092519 }, "geometry": { "type": "Point", "coordinates": [ -88.092519, 42.225432 ] } },
{ "type": "Feature", "properties": { "RCDTS": "450670040262001", "School": "Parkview Elementary School", "City": "Columbia", "demSCHOOLlow": 13.0, "ISAT13": 76.6, "PSAE13": " ", "ACT13": " ", "LATITUDE": 38.447523, "LONGITUDE": -90.21795 }, "geometry": { "type": "Point", "coordinates": [ -90.21795, 38.447523 ] } },
{ "type": "Feature", "properties": { "RCDTS": "350501850042001", "School": "Waltham Elementary School", "City": "Utica", "demSCHOOLlow": 13.0, "ISAT13": 69.4, "PSAE13": " ", "ACT13": " ", "LATITUDE": 41.411149, "LONGITUDE": -88.983235 }, "geometry": { "type": "Point", "coordinates": [ -88.983235, 41.411149 ] } },
{ "type": "Feature", "properties": { "RCDTS": "190222050262005", "School": "Field Elem School", "City": "Elmhurst", "demSCHOOLlow": 13.1, "ISAT13": 88.4, "PSAE13": " ", "ACT13": " ", "LATITUDE": 41.906338, "LONGITUDE": -87.931108 }, "geometry": { "type": "Point", "coordinates": [ -87.931108, 41.906338 ] } },
{ "type": "Feature", "properties": { "RCDTS": "190222040262005", "School": "Robert Clow Elem Sch", "City": "Naperville", "demSCHOOLlow": 13.1, "ISAT13": 83.9, "PSAE13": " ", "ACT13": " ", "LATITUDE": 41.717327, "LONGITUDE": -88.173731 }, "geometry": { "type": "Point", "coordinates": [ -88.173731, 41.717327 ] } },
{ "type": "Feature", "properties": { "RCDTS": "240473080262011", "School": "Prairie Point Elem School", "City": "Oswego", "demSCHOOLlow": 13.1, "ISAT13": 77.8, "PSAE13": " ", "ACT13": " ", "LATITUDE": 41.676247, "LONGITUDE": -88.346823 }, "geometry": { "type": "Point", "coordinates": [ -88.346823, 41.676247 ] } },
{ "type": "Feature", "properties": { "RCDTS": "480723160042001", "School": "Limestone Walters Elem School", "City": "Peoria", "demSCHOOLlow": 13.1, "ISAT13": 75.6, "PSAE13": " ", "ACT13": " ", "LATITUDE": 40.656827, "LONGITUDE": -89.724971 }, "geometry": { "type": "Point", "coordinates": [ -89.724971, 40.656827 ] } },
{ "type": "Feature", "properties": { "RCDTS": "340490340042004", "School": "Oakland Elementary School", "City": "Lake Villa", "demSCHOOLlow": 13.1, "ISAT13": 72.3, "PSAE13": " ", "ACT13": " ", "LATITUDE": 42.442968, "LONGITUDE": -88.06374 }, "geometry": { "type": "Point", "coordinates": [ -88.06374, 42.442968 ] } },
{ "type": "Feature", "properties": { "RCDTS": "190220580022006", "School": "Indian Trail Elem School", "City": "Downers Grove", "demSCHOOLlow": 13.1, "ISAT13": 70.2, "PSAE13": " ", "ACT13": " ", "LATITUDE": 41.772494, "LONGITUDE": -88.029341 }, "geometry": { "type": "Point", "coordinates": [ -88.029341, 41.772494 ] } },
{ "type": "Feature", "properties": { "RCDTS": "440631540160001", "School": "Marengo High School", "City": "Marengo", "demSCHOOLlow": 13.1, "ISAT13": " ", "PSAE13": 66.0, "ACT13": 21.8, "LATITUDE": 42.244326, "LONGITUDE": -88.586148 }, "geometry": { "type": "Point", "coordinates": [ -88.586148, 42.244326 ] } },
{ "type": "Feature", "properties": { "RCDTS": "050160540042008", "School": "Everett Dirksen Elementary Sch", "City": "Schaumburg", "demSCHOOLlow": 13.2, "ISAT13": 81.8, "PSAE13": " ", "ACT13": " ", "LATITUDE": 42.020967, "LONGITUDE": -88.083201 }, "geometry": { "type": "Point", "coordinates": [ -88.083201, 42.020967 ] } },
{ "type": "Feature", "properties": { "RCDTS": "340490950262005", "School": "May Whitney Elem School", "City": "Lake Zurich", "demSCHOOLlow": 13.2, "ISAT13": 81.5, "PSAE13": " ", "ACT13": " ", "LATITUDE": 42.199929, "LONGITUDE": -88.088872 }, "geometry": { "type": "Point", "coordinates": [ -88.088872, 42.199929 ] } },
{ "type": "Feature", "properties": { "RCDTS": "050160540042006", "School": "Winston Churchill Elem School", "City": "Schaumburg", "demSCHOOLlow": 13.3, "ISAT13": 80.0, "PSAE13": " ", "ACT13": " ", "LATITUDE": 42.054787, "LONGITUDE": -88.099407 }, "geometry": { "type": "Point", "coordinates": [ -88.099407, 42.054787 ] } },
{ "type": "Feature", "properties": { "RCDTS": "190222030261009", "School": "Lincoln Jr High School", "City": "Naperville", "demSCHOOLlow": 13.3, "ISAT13": 77.4, "PSAE13": " ", "ACT13": " ", "LATITUDE": 41.747009, "LONGITUDE": -88.139402 }, "geometry": { "type": "Point", "coordinates": [ -88.139402, 41.747009 ] } },
{ "type": "Feature", "properties": { "RCDTS": "340490960041003", "School": "Woodlawn Middle School", "City": "Long Grove", "demSCHOOLlow": 13.4, "ISAT13": 86.4, "PSAE13": " ", "ACT13": " ", "LATITUDE": 42.215382, "LONGITUDE": -88.013918 }, "geometry": { "type": "Point", "coordinates": [ -88.013918, 42.215382 ] } },
{ "type": "Feature", "properties": { "RCDTS": "050160540041012", "School": "Robert Frost JHS", "City": "Schaumburg", "demSCHOOLlow": 13.4, "ISAT13": 81.2, "PSAE13": " ", "ACT13": " ", "LATITUDE": 42.005059, "LONGITUDE": -88.087378 }, "geometry": { "type": "Point", "coordinates": [ -88.087378, 42.005059 ] } },
{ "type": "Feature", "properties": { "RCDTS": "190222030261011", "School": "Washington Jr High School", "City": "Naperville", "demSCHOOLlow": 13.4, "ISAT13": 78.3, "PSAE13": " ", "ACT13": " ", "LATITUDE": 41.777658, "LONGITUDE": -88.14764 }, "geometry": { "type": "Point", "coordinates": [ -88.14764, 41.777658 ] } },
{ "type": "Feature", "properties": { "RCDTS": "390550020260001", "School": "Maroa-Forsyth Senior High Sch", "City": "Maroa", "demSCHOOLlow": 13.4, "ISAT13": " ", "PSAE13": 67.9, "ACT13": 21.8, "LATITUDE": 40.037183, "LONGITUDE": -88.9629 }, "geometry": { "type": "Point", "coordinates": [ -88.9629, 40.037183 ] } },
{ "type": "Feature", "properties": { "RCDTS": "480723220260004", "School": "Elmwood High School", "City": "Elmwood", "demSCHOOLlow": 13.4, "ISAT13": " ", "PSAE13": 52.9, "ACT13": 20.9, "LATITUDE": 40.78115, "LONGITUDE": -89.97 }, "geometry": { "type": "Point", "coordinates": [ -89.97, 40.78115 ] } },
{ "type": "Feature", "properties": { "RCDTS": "050160340041006", "School": "Attea Middle School", "City": "Glenview", "demSCHOOLlow": 13.5, "ISAT13": 83.0, "PSAE13": " ", "ACT13": " ", "LATITUDE": 42.087499, "LONGITUDE": -87.819142 }, "geometry": { "type": "Point", "coordinates": [ -87.819142, 42.087499 ] } },
{ "type": "Feature", "properties": { "RCDTS": "440630150042003", "School": "Landmark Elem School", "City": "McHenry", "demSCHOOLlow": 13.5, "ISAT13": 82.1, "PSAE13": " ", "ACT13": " ", "LATITUDE": 42.343169, "LONGITUDE": -88.267971 }, "geometry": { "type": "Point", "coordinates": [ -88.267971, 42.343169 ] } },
{ "type": "Feature", "properties": { "RCDTS": "560991140022001", "School": "Anna McDonald Elem School", "City": "Manhattan", "demSCHOOLlow": 13.5, "ISAT13": 77.7, "PSAE13": " ", "ACT13": " ", "LATITUDE": 41.4198, "LONGITUDE": -87.9825 }, "geometry": { "type": "Point", "coordinates": [ -87.9825, 41.4198 ] } },
{ "type": "Feature", "properties": { "RCDTS": "310451010222005", "School": "J B Nelson Elem School", "City": "Batavia", "demSCHOOLlow": 13.5, "ISAT13": 77.4, "PSAE13": " ", "ACT13": " ", "LATITUDE": 41.846422, "LONGITUDE": -88.29857 }, "geometry": { "type": "Point", "coordinates": [ -88.29857, 41.846422 ] } },
{ "type": "Feature", "properties": { "RCDTS": "150162990252953", "School": "Edison Park Elem School", "City": "Chicago", "demSCHOOLlow": 13.5, "ISAT13": 73.7, "PSAE13": " ", "ACT13": " ", "LATITUDE": 41.99444, "LONGITUDE": -87.813605 }, "geometry": { "type": "Point", "coordinates": [ -87.813605, 41.99444 ] } },
{ "type": "Feature", "properties": { "RCDTS": "130140010260001", "School": "Carlyle High School", "City": "Carlyle", "demSCHOOLlow": 13.5, "ISAT13": " ", "PSAE13": 58.2, "ACT13": 19.8, "LATITUDE": 38.61902, "LONGITUDE": -89.373055 }, "geometry": { "type": "Point", "coordinates": [ -89.373055, 38.61902 ] } },
{ "type": "Feature", "properties": { "RCDTS": "190220630021001", "School": "Cass Jr High School", "City": "Darien", "demSCHOOLlow": 13.6, "ISAT13": 78.0, "PSAE13": " ", "ACT13": " ", "LATITUDE": 41.735027, "LONGITUDE": -87.978031 }, "geometry": { "type": "Point", "coordinates": [ -87.978031, 41.735027 ] } },
{ "type": "Feature", "properties": { "RCDTS": "510840150262004", "School": "Sherman Elem School", "City": "Sherman", "demSCHOOLlow": 13.6, "ISAT13": 69.1, "PSAE13": " ", "ACT13": " ", "LATITUDE": 39.892918, "LONGITUDE": -89.599407 }, "geometry": { "type": "Point", "coordinates": [ -89.599407, 39.892918 ] } },
{ "type": "Feature", "properties": { "RCDTS": "510840080261001", "School": "Pleasant Plains Middle School", "City": "Pleasant Plains", "demSCHOOLlow": 13.7, "ISAT13": 72.0, "PSAE13": " ", "ACT13": " ", "LATITUDE": 39.836024, "LONGITUDE": -89.806044 }, "geometry": { "type": "Point", "coordinates": [ -89.806044, 39.836024 ] } },
{ "type": "Feature", "properties": { "RCDTS": "070161350021004", "School": "Orland Jr High School", "City": "Orland Park", "demSCHOOLlow": 13.7, "ISAT13": 71.3, "PSAE13": " ", "ACT13": " ", "LATITUDE": 41.619992, "LONGITUDE": -87.863088 }, "geometry": { "type": "Point", "coordinates": [ -87.863088, 41.619992 ] } },
{ "type": "Feature", "properties": { "RCDTS": "560992100160001", "School": "Lincoln-Way Central High School", "City": "New Lenox", "demSCHOOLlow": 13.7, "ISAT13": " ", "PSAE13": 71.3, "ACT13": 22.3, "LATITUDE": 41.511595, "LONGITUDE": -87.931582 }, "geometry": { "type": "Point", "coordinates": [ -87.931582, 41.511595 ] } },
{ "type": "Feature", "properties": { "RCDTS": "560992100160004", "School": "Lincoln Way West", "City": "New Lenox", "demSCHOOLlow": 13.7, "ISAT13": " ", "PSAE13": 70.8, "ACT13": 22.5, "LATITUDE": 41.495084, "LONGITUDE": -88.001128 }, "geometry": { "type": "Point", "coordinates": [ -88.001128, 41.495084 ] } },
{ "type": "Feature", "properties": { "RCDTS": "51084003A261002", "School": "Rochester Jr High School", "City": "Rochester", "demSCHOOLlow": 13.8, "ISAT13": 77.1, "PSAE13": " ", "ACT13": " ", "LATITUDE": 39.751431, "LONGITUDE": -89.537869 }, "geometry": { "type": "Point", "coordinates": [ -89.537869, 39.751431 ] } },
{ "type": "Feature", "properties": { "RCDTS": "060162040170001", "School": "Lyons Twp High Sch", "City": "La Grange", "demSCHOOLlow": 13.8, "ISAT13": " ", "PSAE13": 74.5, "ACT13": 23.6, "LATITUDE": 41.812164, "LONGITUDE": -87.879497 }, "geometry": { "type": "Point", "coordinates": [ -87.879497, 41.812164 ] } },
{ "type": "Feature", "properties": { "RCDTS": "090100030260001", "School": "Mahomet-Seymour High School", "City": "Mahomet", "demSCHOOLlow": 13.8, "ISAT13": " ", "PSAE13": 72.0, "ACT13": 23.2, "LATITUDE": 40.202509, "LONGITUDE": -88.410117 }, "geometry": { "type": "Point", "coordinates": [ -88.410117, 40.202509 ] } },
{ "type": "Feature", "properties": { "RCDTS": "150162990252739", "School": "Keller Gifted Magnet Elem School", "City": "Chicago", "demSCHOOLlow": 13.9, "ISAT13": 99.7, "PSAE13": " ", "ACT13": " ", "LATITUDE": 41.697108, "LONGITUDE": -87.697107 }, "geometry": { "type": "Point", "coordinates": [ -87.697107, 41.697108 ] } },
{ "type": "Feature", "properties": { "RCDTS": "190222050262004", "School": "Emerson Elem School", "City": "Elmhurst", "demSCHOOLlow": 13.9, "ISAT13": 79.8, "PSAE13": " ", "ACT13": " ", "LATITUDE": 41.888684, "LONGITUDE": -87.959845 }, "geometry": { "type": "Point", "coordinates": [ -87.959845, 41.888684 ] } },
{ "type": "Feature", "properties": { "RCDTS": "560991220022005", "School": "Nelson Ridge School", "City": "New Lenox", "demSCHOOLlow": 13.9, "ISAT13": 69.5, "PSAE13": " ", "ACT13": " ", "LATITUDE": 41.47907, "LONGITUDE": -87.983868 }, "geometry": { "type": "Point", "coordinates": [ -87.983868, 41.47907 ] } },
{ "type": "Feature", "properties": { "RCDTS": "431021220170001", "School": "Metamora High School", "City": "Metamora", "demSCHOOLlow": 13.9, "ISAT13": " ", "PSAE13": 65.0, "ACT13": 22.1, "LATITUDE": 40.794544, "LONGITUDE": -89.363276 }, "geometry": { "type": "Point", "coordinates": [ -89.363276, 40.794544 ] } },
{ "type": "Feature", "properties": { "RCDTS": "480723220262002", "School": "Elmwood Elem School", "City": "Elmwood", "demSCHOOLlow": 14.0, "ISAT13": 75.8, "PSAE13": " ", "ACT13": " ", "LATITUDE": 40.782985, "LONGITUDE": -89.969901 }, "geometry": { "type": "Point", "coordinates": [ -89.969901, 40.782985 ] } },
{ "type": "Feature", "properties": { "RCDTS": "240320740032001", "School": "South Wilmington Grade School", "City": "South Wilmington", "demSCHOOLlow": 14.0, "ISAT13": 75.4, "PSAE13": " ", "ACT13": " ", "LATITUDE": 41.17364, "LONGITUDE": -88.278007 }, "geometry": { "type": "Point", "coordinates": [ -88.278007, 41.17364 ] } },
{ "type": "Feature", "properties": { "RCDTS": "190220580022014", "School": "Henry Puffer School", "City": "Downers Grove", "demSCHOOLlow": 14.0, "ISAT13": 70.8, "PSAE13": " ", "ACT13": " ", "LATITUDE": 41.797763, "LONGITUDE": -88.037997 }, "geometry": { "type": "Point", "coordinates": [ -88.037997, 41.797763 ] } },
{ "type": "Feature", "properties": { "RCDTS": "410570070260001", "School": "Edwardsville High School", "City": "Edwardsville", "demSCHOOLlow": 14.0, "ISAT13": " ", "PSAE13": 70.6, "ACT13": 23.0, "LATITUDE": 38.78731, "LONGITUDE": -89.977056 }, "geometry": { "type": "Point", "coordinates": [ -89.977056, 38.78731 ] } },
{ "type": "Feature", "properties": { "RCDTS": "490813000262006", "School": "Taylor Ridge Elem School", "City": "Taylor Ridge", "demSCHOOLlow": 14.1, "ISAT13": 87.5, "PSAE13": " ", "ACT13": " ", "LATITUDE": 41.387601, "LONGITUDE": -90.671771 }, "geometry": { "type": "Point", "coordinates": [ -90.671771, 41.387601 ] } },
{ "type": "Feature", "properties": { "RCDTS": "190222040262012", "School": "Reba O Steck Elementary School", "City": "Aurora", "demSCHOOLlow": 14.1, "ISAT13": 83.4, "PSAE13": " ", "ACT13": " ", "LATITUDE": 41.747581, "LONGITUDE": -88.256812 }, "geometry": { "type": "Point", "coordinates": [ -88.256812, 41.747581 ] } },
{ "type": "Feature", "properties": { "RCDTS": "170640050262016", "School": "Prairieland Elementary School", "City": "Normal", "demSCHOOLlow": 14.2, "ISAT13": 82.3, "PSAE13": " ", "ACT13": " ", "LATITUDE": 40.531968, "LONGITUDE": -88.967989 }, "geometry": { "type": "Point", "coordinates": [ -88.967989, 40.531968 ] } },
{ "type": "Feature", "properties": { "RCDTS": "340490950262003", "School": "Seth Paine Elem School", "City": "Hawthorn Woods", "demSCHOOLlow": 14.2, "ISAT13": 81.7, "PSAE13": " ", "ACT13": " ", "LATITUDE": 42.212135403, "LONGITUDE": -88.109801505 }, "geometry": { "type": "Point", "coordinates": [ -88.109801505, 42.212135403 ] } },
{ "type": "Feature", "properties": { "RCDTS": "090103050160001", "School": "St Joseph-Ogden High School", "City": "Saint Joseph", "demSCHOOLlow": 14.2, "ISAT13": " ", "PSAE13": 69.2, "ACT13": 21.7, "LATITUDE": 40.113247, "LONGITUDE": -88.041735 }, "geometry": { "type": "Point", "coordinates": [ -88.041735, 40.113247 ] } },
{ "type": "Feature", "properties": { "RCDTS": "190222040262023", "School": "Wayne Builta Elementary School", "City": "Bolingbrook", "demSCHOOLlow": 14.3, "ISAT13": 79.6, "PSAE13": " ", "ACT13": " ", "LATITUDE": 41.690684, "LONGITUDE": -88.152136 }, "geometry": { "type": "Point", "coordinates": [ -88.152136, 41.690684 ] } },
{ "type": "Feature", "properties": { "RCDTS": "410570070261001", "School": "Liberty Middle School", "City": "Edwardsville", "demSCHOOLlow": 14.3, "ISAT13": 78.1, "PSAE13": " ", "ACT13": " ", "LATITUDE": 38.781249, "LONGITUDE": -89.925068 }, "geometry": { "type": "Point", "coordinates": [ -89.925068, 38.781249 ] } },
{ "type": "Feature", "properties": { "RCDTS": "56099033C042005", "School": "Hadley Middle School", "City": "Homer Glen", "demSCHOOLlow": 14.3, "ISAT13": 74.2, "PSAE13": " ", "ACT13": " ", "LATITUDE": 41.602258, "LONGITUDE": -87.926543 }, "geometry": { "type": "Point", "coordinates": [ -87.926543, 41.602258 ] } },
{ "type": "Feature", "properties": { "RCDTS": "240470180160001", "School": "Newark Comm High School", "City": "Newark", "demSCHOOLlow": 14.3, "ISAT13": " ", "PSAE13": 73.4, "ACT13": 20.2, "LATITUDE": 41.540932, "LONGITUDE": -88.578812 }, "geometry": { "type": "Point", "coordinates": [ -88.578812, 41.540932 ] } },
{ "type": "Feature", "properties": { "RCDTS": "480723230262003", "School": "Wilder-Waite Elem School", "City": "Peoria", "demSCHOOLlow": 14.4, "ISAT13": 77.6, "PSAE13": " ", "ACT13": " ", "LATITUDE": 40.809542, "LONGITUDE": -89.636487 }, "geometry": { "type": "Point", "coordinates": [ -89.636487, 40.809542 ] } },
{ "type": "Feature", "properties": { "RCDTS": "240471150262002", "School": "Circle Center Grade School", "City": "Yorkville", "demSCHOOLlow": 14.4, "ISAT13": 68.7, "PSAE13": " ", "ACT13": " ", "LATITUDE": 41.635542, "LONGITUDE": -88.443866 }, "geometry": { "type": "Point", "coordinates": [ -88.443866, 41.635542 ] } },
{ "type": "Feature", "properties": { "RCDTS": "310450460222037", "School": "Wayne Elem School", "City": "Wayne", "demSCHOOLlow": 14.5, "ISAT13": 82.2, "PSAE13": " ", "ACT13": " ", "LATITUDE": 41.951117, "LONGITUDE": -88.24493 }, "geometry": { "type": "Point", "coordinates": [ -88.24493, 41.951117 ] } },
{ "type": "Feature", "properties": { "RCDTS": "050160540042023", "School": "Adolph Link Elem School", "City": "Elk Grove Village", "demSCHOOLlow": 14.5, "ISAT13": 80.0, "PSAE13": " ", "ACT13": " ", "LATITUDE": 42.006757, "LONGITUDE": -88.038463 }, "geometry": { "type": "Point", "coordinates": [ -88.038463, 42.006757 ] } },
{ "type": "Feature", "properties": { "RCDTS": "51084003A262004", "School": "Rochester Intermediate School", "City": "Rochester", "demSCHOOLlow": 14.5, "ISAT13": 78.7, "PSAE13": " ", "ACT13": " ", "LATITUDE": 39.715672229, "LONGITUDE": -89.503016411 }, "geometry": { "type": "Point", "coordinates": [ -89.503016411, 39.715672229 ] } },
{ "type": "Feature", "properties": { "RCDTS": "030250500262002", "School": "Teutopolis Grade School", "City": "Teutopolis", "demSCHOOLlow": 14.5, "ISAT13": 76.8, "PSAE13": " ", "ACT13": " ", "LATITUDE": 39.132987, "LONGITUDE": -88.470191 }, "geometry": { "type": "Point", "coordinates": [ -88.470191, 39.132987 ] } },
{ "type": "Feature", "properties": { "RCDTS": "440630030031001", "School": "Fox River Grove Middle School", "City": "Fox River Grove", "demSCHOOLlow": 14.5, "ISAT13": 73.6, "PSAE13": " ", "ACT13": " ", "LATITUDE": 42.197232, "LONGITUDE": -88.213955 }, "geometry": { "type": "Point", "coordinates": [ -88.213955, 42.197232 ] } },
{ "type": "Feature", "properties": { "RCDTS": "170640050262014", "School": "Towanda Elem School", "City": "Towanda", "demSCHOOLlow": 14.5, "ISAT13": 67.6, "PSAE13": " ", "ACT13": " ", "LATITUDE": 40.563172, "LONGITUDE": -88.895962 }, "geometry": { "type": "Point", "coordinates": [ -88.895962, 40.563172 ] } },
{ "type": "Feature", "properties": { "RCDTS": "340492200262002", "School": "Hough Street Elem School", "City": "Barrington", "demSCHOOLlow": 14.6, "ISAT13": 89.9, "PSAE13": " ", "ACT13": " ", "LATITUDE": 42.152287, "LONGITUDE": -88.136096 }, "geometry": { "type": "Point", "coordinates": [ -88.136096, 42.152287 ] } },
{ "type": "Feature", "properties": { "RCDTS": "390550020261001", "School": "Maroa-Forsyth Middle School", "City": "Maroa", "demSCHOOLlow": 14.6, "ISAT13": 78.2, "PSAE13": " ", "ACT13": " ", "LATITUDE": 40.036354, "LONGITUDE": -88.960654 }, "geometry": { "type": "Point", "coordinates": [ -88.960654, 40.036354 ] } },
{ "type": "Feature", "properties": { "RCDTS": "070161350021005", "School": "Jerling Junior High School", "City": "Orland Park", "demSCHOOLlow": 14.6, "ISAT13": 72.3, "PSAE13": " ", "ACT13": " ", "LATITUDE": 41.616219, "LONGITUDE": -87.835571 }, "geometry": { "type": "Point", "coordinates": [ -87.835571, 41.616219 ] } },
{ "type": "Feature", "properties": { "RCDTS": "07016113A022004", "School": "River Valley School", "City": "Lemont", "demSCHOOLlow": 14.6, "ISAT13": 65.3, "PSAE13": " ", "ACT13": " ", "LATITUDE": 41.656695, "LONGITUDE": -87.995835 }, "geometry": { "type": "Point", "coordinates": [ -87.995835, 41.656695 ] } },
{ "type": "Feature", "properties": { "RCDTS": "560991220021006", "School": "Liberty Junior High School", "City": "New Lenox", "demSCHOOLlow": 14.6, "ISAT13": 63.0, "PSAE13": " ", "ACT13": " ", "LATITUDE": 41.533738, "LONGITUDE": -87.966772 }, "geometry": { "type": "Point", "coordinates": [ -87.966772, 41.533738 ] } },
{ "type": "Feature", "properties": { "RCDTS": "340491130170002", "School": "Highland Park High School", "City": "Highland Park", "demSCHOOLlow": 14.7, "ISAT13": " ", "PSAE13": 77.5, "ACT13": 25.2, "LATITUDE": 42.192325, "LONGITUDE": -87.801273 }, "geometry": { "type": "Point", "coordinates": [ -87.801273, 42.192325 ] } },
{ "type": "Feature", "properties": { "RCDTS": "530907090260006", "School": "Morton High School", "City": "Morton", "demSCHOOLlow": 14.7, "ISAT13": " ", "PSAE13": 77.0, "ACT13": 24.0, "LATITUDE": 40.611406, "LONGITUDE": -89.454136 }, "geometry": { "type": "Point", "coordinates": [ -89.454136, 40.611406 ] } },
{ "type": "Feature", "properties": { "RCDTS": "560991220022004", "School": "Nelson Prairie School", "City": "New Lenox", "demSCHOOLlow": 14.8, "ISAT13": 69.1, "PSAE13": " ", "ACT13": " ", "LATITUDE": 41.479673, "LONGITUDE": -87.983891 }, "geometry": { "type": "Point", "coordinates": [ -87.983891, 41.479673 ] } },
{ "type": "Feature", "properties": { "RCDTS": "340491210170001", "School": "Warren Township High School", "City": "Gurnee", "demSCHOOLlow": 14.8, "ISAT13": " ", "PSAE13": 68.3, "ACT13": 21.9, "LATITUDE": 42.358008, "LONGITUDE": -87.978352 }, "geometry": { "type": "Point", "coordinates": [ -87.978352, 42.358008 ] } },
{ "type": "Feature", "properties": { "RCDTS": "050160260022003", "School": "Indian Grove Elem School", "City": "Mt Prospect", "demSCHOOLlow": 14.9, "ISAT13": 84.5, "PSAE13": " ", "ACT13": " ", "LATITUDE": 42.090472948, "LONGITUDE": -87.898005195 }, "geometry": { "type": "Point", "coordinates": [ -87.898005195, 42.090472948 ] } },
{ "type": "Feature", "properties": { "RCDTS": "150162990252376", "School": "Norwood Park Elem School", "City": "Chicago", "demSCHOOLlow": 15.0, "ISAT13": 80.9, "PSAE13": " ", "ACT13": " ", "LATITUDE": 41.988166, "LONGITUDE": -87.802631 }, "geometry": { "type": "Point", "coordinates": [ -87.802631, 41.988166 ] } },
{ "type": "Feature", "properties": { "RCDTS": "500820700042003", "School": "Freeburg Elem School", "City": "Freeburg", "demSCHOOLlow": 15.0, "ISAT13": 77.2, "PSAE13": " ", "ACT13": " ", "LATITUDE": 38.420601, "LONGITUDE": -89.913802 }, "geometry": { "type": "Point", "coordinates": [ -89.913802, 38.420601 ] } },
{ "type": "Feature", "properties": { "RCDTS": "310453010262004", "School": "Lily Lake Grade School", "City": "Maple Park", "demSCHOOLlow": 15.0, "ISAT13": 76.5, "PSAE13": " ", "ACT13": " ", "LATITUDE": 41.947452, "LONGITUDE": -88.478425 }, "geometry": { "type": "Point", "coordinates": [ -88.478425, 41.947452 ] } },
{ "type": "Feature", "properties": { "RCDTS": "240473080262014", "School": "Grande Park Elem Sch", "City": "Plainfield", "demSCHOOLlow": 15.1, "ISAT13": 81.4, "PSAE13": " ", "ACT13": " ", "LATITUDE": 41.640411, "LONGITUDE": -88.272643 }, "geometry": { "type": "Point", "coordinates": [ -88.272643, 41.640411 ] } },
{ "type": "Feature", "properties": { "RCDTS": "050160210042009", "School": "Henry W Longfellow Elem School", "City": "Buffalo Grove", "demSCHOOLlow": 15.1, "ISAT13": 80.5, "PSAE13": " ", "ACT13": " ", "LATITUDE": 42.145016, "LONGITUDE": -87.984027 }, "geometry": { "type": "Point", "coordinates": [ -87.984027, 42.145016 ] } },
{ "type": "Feature", "properties": { "RCDTS": "56099033C042003", "School": "Goodings Grove School", "City": "Homer Glen", "demSCHOOLlow": 15.1, "ISAT13": 71.6, "PSAE13": " ", "ACT13": " ", "LATITUDE": 41.629068, "LONGITUDE": -87.933664 }, "geometry": { "type": "Point", "coordinates": [ -87.933664, 41.629068 ] } },
{ "type": "Feature", "properties": { "RCDTS": "090101970042001", "School": "Prairieview-Ogden North Elem", "City": "Royal", "demSCHOOLlow": 15.2, "ISAT13": 84.8, "PSAE13": " ", "ACT13": " ", "LATITUDE": 40.1927, "LONGITUDE": -87.9689 }, "geometry": { "type": "Point", "coordinates": [ -87.9689, 40.1927 ] } },
{ "type": "Feature", "properties": { "RCDTS": "380540920042001", "School": "West Lincoln-Broadwell Elem Sch", "City": "Lincoln", "demSCHOOLlow": 15.2, "ISAT13": 78.1, "PSAE13": " ", "ACT13": " ", "LATITUDE": 40.15782, "LONGITUDE": -89.40918 }, "geometry": { "type": "Point", "coordinates": [ -89.40918, 40.15782 ] } },
{ "type": "Feature", "properties": { "RCDTS": "310453040262004", "School": "Harrison Street Elem School", "City": "Geneva", "demSCHOOLlow": 15.2, "ISAT13": 73.5, "PSAE13": " ", "ACT13": " ", "LATITUDE": 41.888755, "LONGITUDE": -88.29281 }, "geometry": { "type": "Point", "coordinates": [ -88.29281, 41.888755 ] } },
{ "type": "Feature", "properties": { "RCDTS": "310453010262003", "School": "Howard B Thomas Grade School", "City": "Burlington", "demSCHOOLlow": 15.2, "ISAT13": 72.8, "PSAE13": " ", "ACT13": " ", "LATITUDE": 42.018308, "LONGITUDE": -88.479616 }, "geometry": { "type": "Point", "coordinates": [ -88.479616, 42.018308 ] } },
{ "type": "Feature", "properties": { "RCDTS": "041011330041001", "School": "Willowbrook Middle School", "City": "South Beloit", "demSCHOOLlow": 15.3, "ISAT13": 75.8, "PSAE13": " ", "ACT13": " ", "LATITUDE": 42.471565, "LONGITUDE": -88.987874 }, "geometry": { "type": "Point", "coordinates": [ -88.987874, 42.471565 ] } },
{ "type": "Feature", "properties": { "RCDTS": "050160740021001", "School": "Lincoln Hall Middle School", "City": "Lincolnwood", "demSCHOOLlow": 15.3, "ISAT13": 72.6, "PSAE13": " ", "ACT13": " ", "LATITUDE": 42.005243, "LONGITUDE": -87.728636 }, "geometry": { "type": "Point", "coordinates": [ -87.728636, 42.005243 ] } },
{ "type": "Feature", "properties": { "RCDTS": "51084003A262005", "School": "Rochester Elem 2-3", "City": "Rochester", "demSCHOOLlow": 15.4, "ISAT13": 77.1, "PSAE13": " ", "ACT13": " ", "LATITUDE": 39.715672229, "LONGITUDE": -89.503016411 }, "geometry": { "type": "Point", "coordinates": [ -89.503016411, 39.715672229 ] } },
{ "type": "Feature", "properties": { "RCDTS": "070162300130003", "School": "Victor J Andrew High School", "City": "Orland Hills", "demSCHOOLlow": 15.4, "ISAT13": " ", "PSAE13": 63.4, "ACT13": 22.1, "LATITUDE": 41.579679, "LONGITUDE": -87.836243 }, "geometry": { "type": "Point", "coordinates": [ -87.836243, 41.579679 ] } },
{ "type": "Feature", "properties": { "RCDTS": "240471150262008", "School": "Bristol Bay Elem Sch", "City": "Yorkville", "demSCHOOLlow": 15.5, "ISAT13": 64.6, "PSAE13": " ", "ACT13": " ", "LATITUDE": 41.712364, "LONGITUDE": -88.432443 }, "geometry": { "type": "Point", "coordinates": [ -88.432443, 41.712364 ] } },
{ "type": "Feature", "properties": { "RCDTS": "340490730042007", "School": "Hawthorn Aspen Elem School", "City": "Vernon Hills", "demSCHOOLlow": 15.6, "ISAT13": 85.6, "PSAE13": " ", "ACT13": " ", "LATITUDE": 42.23526, "LONGITUDE": -87.972002 }, "geometry": { "type": "Point", "coordinates": [ -87.972002, 42.23526 ] } },
{ "type": "Feature", "properties": { "RCDTS": "190222040262021", "School": "Nancy Young Elementary School", "City": "Aurora", "demSCHOOLlow": 15.6, "ISAT13": 79.8, "PSAE13": " ", "ACT13": " ", "LATITUDE": 41.76595, "LONGITUDE": -88.250301 }, "geometry": { "type": "Point", "coordinates": [ -88.250301, 41.76595 ] } },
{ "type": "Feature", "properties": { "RCDTS": "130140600022001", "School": "Germantown Elem School", "City": "Germantown", "demSCHOOLlow": 15.6, "ISAT13": 78.2, "PSAE13": " ", "ACT13": " ", "LATITUDE": 38.552779, "LONGITUDE": -89.536707 }, "geometry": { "type": "Point", "coordinates": [ -89.536707, 38.552779 ] } },
{ "type": "Feature", "properties": { "RCDTS": "170640050262009", "School": "Hudson Elem School", "City": "Hudson", "demSCHOOLlow": 15.6, "ISAT13": 72.6, "PSAE13": " ", "ACT13": " ", "LATITUDE": 40.605322, "LONGITUDE": -88.989376 }, "geometry": { "type": "Point", "coordinates": [ -88.989376, 40.605322 ] } },
{ "type": "Feature", "properties": { "RCDTS": "170640070261001", "School": "Lexington Jr High School", "City": "Lexington", "demSCHOOLlow": 15.7, "ISAT13": 80.2, "PSAE13": " ", "ACT13": " ", "LATITUDE": 40.645165043, "LONGITUDE": -88.779671274 }, "geometry": { "type": "Point", "coordinates": [ -88.779671274, 40.645165043 ] } },
{ "type": "Feature", "properties": { "RCDTS": "340491120022001", "School": "Elm Place School", "City": "Highland Park", "demSCHOOLlow": 15.7, "ISAT13": 76.7, "PSAE13": " ", "ACT13": " ", "LATITUDE": 42.189423, "LONGITUDE": -87.797758 }, "geometry": { "type": "Point", "coordinates": [ -87.797758, 42.189423 ] } },
{ "type": "Feature", "properties": { "RCDTS": "440630260042002", "School": "Briargate Elem School", "City": "Cary", "demSCHOOLlow": 15.7, "ISAT13": 75.0, "PSAE13": " ", "ACT13": " ", "LATITUDE": 42.207328, "LONGITUDE": -88.251794 }, "geometry": { "type": "Point", "coordinates": [ -88.251794, 42.207328 ] } },
{ "type": "Feature", "properties": { "RCDTS": "041011310041002", "School": "Roscoe Middle School", "City": "Roscoe", "demSCHOOLlow": 15.7, "ISAT13": 74.8, "PSAE13": " ", "ACT13": " ", "LATITUDE": 42.427761, "LONGITUDE": -88.998049 }, "geometry": { "type": "Point", "coordinates": [ -88.998049, 42.427761 ] } },
{ "type": "Feature", "properties": { "RCDTS": "530907090261005", "School": "Morton Jr High School", "City": "Morton", "demSCHOOLlow": 15.7, "ISAT13": 74.1, "PSAE13": " ", "ACT13": " ", "LATITUDE": 40.61291, "LONGITUDE": -89.456448 }, "geometry": { "type": "Point", "coordinates": [ -89.456448, 40.61291 ] } },
{ "type": "Feature", "properties": { "RCDTS": "310453020262010", "School": "Kaneland McDole Elem School", "City": "Montgomery", "demSCHOOLlow": 15.7, "ISAT13": 64.7, "PSAE13": " ", "ACT13": " ", "LATITUDE": 41.725863, "LONGITUDE": -88.401041 }, "geometry": { "type": "Point", "coordinates": [ -88.401041, 41.725863 ] } },
{ "type": "Feature", "properties": { "RCDTS": "56099200U260001", "School": "Beecher High School", "City": "Beecher", "demSCHOOLlow": 15.7, "ISAT13": " ", "PSAE13": 54.1, "ACT13": 21.5, "LATITUDE": 41.345436, "LONGITUDE": -87.623029 }, "geometry": { "type": "Point", "coordinates": [ -87.623029, 41.345436 ] } },
{ "type": "Feature", "properties": { "RCDTS": "310453030260011", "School": "St Charles East High School", "City": "St Charles", "demSCHOOLlow": 15.8, "ISAT13": " ", "PSAE13": 76.3, "ACT13": 23.0, "LATITUDE": 41.928479352, "LONGITUDE": -88.283513991 }, "geometry": { "type": "Point", "coordinates": [ -88.283513991, 41.928479352 ] } },
{ "type": "Feature", "properties": { "RCDTS": "150162990252249", "School": "Hawthorne Scholastic Academy ES", "City": "Chicago", "demSCHOOLlow": 15.9, "ISAT13": 91.6, "PSAE13": " ", "ACT13": " ", "LATITUDE": 41.940466, "LONGITUDE": -87.657439 }, "geometry": { "type": "Point", "coordinates": [ -87.657439, 41.940466 ] } },
{ "type": "Feature", "properties": { "RCDTS": "070161350022008", "School": "Liberty Elem School", "City": "Orland Park", "demSCHOOLlow": 15.9, "ISAT13": 77.0, "PSAE13": " ", "ACT13": " ", "LATITUDE": 41.616219, "LONGITUDE": -87.834407 }, "geometry": { "type": "Point", "coordinates": [ -87.834407, 41.616219 ] } },
{ "type": "Feature", "properties": { "RCDTS": "440630460031001", "School": "Prairie Grove Junior High School", "City": "Crystal Lake", "demSCHOOLlow": 15.9, "ISAT13": 75.6, "PSAE13": " ", "ACT13": " ", "LATITUDE": 42.259412, "LONGITUDE": -88.261432 }, "geometry": { "type": "Point", "coordinates": [ -88.261432, 42.259412 ] } },
{ "type": "Feature", "properties": { "RCDTS": "480723220261001", "School": "Elmwood Junior High School", "City": "Elmwood", "demSCHOOLlow": 15.9, "ISAT13": 74.1, "PSAE13": " ", "ACT13": " ", "LATITUDE": 40.78115, "LONGITUDE": -89.97 }, "geometry": { "type": "Point", "coordinates": [ -89.97, 40.78115 ] } },
{ "type": "Feature", "properties": { "RCDTS": "190222050260003", "School": "York Comm High School", "City": "Elmhurst", "demSCHOOLlow": 15.9, "ISAT13": " ", "PSAE13": 76.1, "ACT13": 24.1, "LATITUDE": 41.890348, "LONGITUDE": -87.95292 }, "geometry": { "type": "Point", "coordinates": [ -87.95292, 41.890348 ] } },
{ "type": "Feature", "properties": { "RCDTS": "050160650042015", "School": "Orrington Elem School", "City": "Evanston", "demSCHOOLlow": 16.0, "ISAT13": 82.4, "PSAE13": " ", "ACT13": " ", "LATITUDE": 42.065444, "LONGITUDE": -87.679514 }, "geometry": { "type": "Point", "coordinates": [ -87.679514, 42.065444 ] } },
{ "type": "Feature", "properties": { "RCDTS": "240471150262003", "School": "Yorkville Grade School", "City": "Yorkville", "demSCHOOLlow": 16.0, "ISAT13": 65.7, "PSAE13": " ", "ACT13": " ", "LATITUDE": 41.64923, "LONGITUDE": -88.444148 }, "geometry": { "type": "Point", "coordinates": [ -88.444148, 41.64923 ] } },
{ "type": "Feature", "properties": { "RCDTS": "560991140021001", "School": "Manhattan Jr High School", "City": "Manhattan", "demSCHOOLlow": 16.0, "ISAT13": 64.3, "PSAE13": " ", "ACT13": " ", "LATITUDE": 41.439138, "LONGITUDE": -87.991375 }, "geometry": { "type": "Point", "coordinates": [ -87.991375, 41.439138 ] } },
{ "type": "Feature", "properties": { "RCDTS": "440630470042010", "School": "Woods Creek Elementary School", "City": "Crystal Lake", "demSCHOOLlow": 16.1, "ISAT13": 79.7, "PSAE13": " ", "ACT13": " ", "LATITUDE": 42.199798, "LONGITUDE": -88.359149 }, "geometry": { "type": "Point", "coordinates": [ -88.359149, 42.199798 ] } },
{ "type": "Feature", "properties": { "RCDTS": "130141415022001", "School": "St Rose Elem School", "City": "Breese", "demSCHOOLlow": 16.1, "ISAT13": 73.0, "PSAE13": " ", "ACT13": " ", "LATITUDE": 38.684228, "LONGITUDE": -89.55458 }, "geometry": { "type": "Point", "coordinates": [ -89.55458, 38.684228 ] } },
{ "type": "Feature", "properties": { "RCDTS": "440630020032002", "School": "Spring Grove Elementary School", "City": "Spring Grove", "demSCHOOLlow": 16.1, "ISAT13": 71.1, "PSAE13": " ", "ACT13": " ", "LATITUDE": 42.443947, "LONGITUDE": -88.236408 }, "geometry": { "type": "Point", "coordinates": [ -88.236408, 42.443947 ] } },
{ "type": "Feature", "properties": { "RCDTS": "190222040262022", "School": "Arlene Welch Elementary School", "City": "Naperville", "demSCHOOLlow": 16.2, "ISAT13": 84.8, "PSAE13": " ", "ACT13": " ", "LATITUDE": 41.717839, "LONGITUDE": -88.199325 }, "geometry": { "type": "Point", "coordinates": [ -88.199325, 41.717839 ] } },
{ "type": "Feature", "properties": { "RCDTS": "190220410022004", "School": "Forest Glen Elem School", "City": "Glen Ellyn", "demSCHOOLlow": 16.2, "ISAT13": 81.4, "PSAE13": " ", "ACT13": " ", "LATITUDE": 41.888741, "LONGITUDE": -88.064442 }, "geometry": { "type": "Point", "coordinates": [ -88.064442, 41.888741 ] } },
{ "type": "Feature", "properties": { "RCDTS": "510840080262004", "School": "Farmingdale Elem School", "City": "Pleasant Plains", "demSCHOOLlow": 16.2, "ISAT13": 80.2, "PSAE13": " ", "ACT13": " ", "LATITUDE": 39.836264, "LONGITUDE": -89.806048 }, "geometry": { "type": "Point", "coordinates": [ -89.806048, 39.836264 ] } },
{ "type": "Feature", "properties": { "RCDTS": "240322010042003", "School": "Walnut Trails Elem School", "City": "Shorewood", "demSCHOOLlow": 16.2, "ISAT13": 76.5, "PSAE13": " ", "ACT13": " ", "LATITUDE": 41.516807, "LONGITUDE": -88.231703 }, "geometry": { "type": "Point", "coordinates": [ -88.231703, 41.516807 ] } },
{ "type": "Feature", "properties": { "RCDTS": "431020010042001", "School": "Metamora Grade School", "City": "Metamora", "demSCHOOLlow": 16.2, "ISAT13": 75.4, "PSAE13": " ", "ACT13": " ", "LATITUDE": 40.792624, "LONGITUDE": -89.354066 }, "geometry": { "type": "Point", "coordinates": [ -89.354066, 40.792624 ] } },
{ "type": "Feature", "properties": { "RCDTS": "490813000262003", "School": "Andalusia Elem School", "City": "Andalusia", "demSCHOOLlow": 16.2, "ISAT13": 67.1, "PSAE13": " ", "ACT13": " ", "LATITUDE": 41.438096, "LONGITUDE": -90.717922 }, "geometry": { "type": "Point", "coordinates": [ -90.717922, 41.438096 ] } },
{ "type": "Feature", "properties": { "RCDTS": "190222000261017", "School": "Edison Middle School", "City": "Wheaton", "demSCHOOLlow": 16.3, "ISAT13": 80.4, "PSAE13": " ", "ACT13": " ", "LATITUDE": 41.853493, "LONGITUDE": -88.109269 }, "geometry": { "type": "Point", "coordinates": [ -88.109269, 41.853493 ] } },
{ "type": "Feature", "properties": { "RCDTS": "340491120022005", "School": "Sherwood Elem School", "City": "Highland Park", "demSCHOOLlow": 16.3, "ISAT13": 74.3, "PSAE13": " ", "ACT13": " ", "LATITUDE": 42.165264, "LONGITUDE": -87.820794 }, "geometry": { "type": "Point", "coordinates": [ -87.820794, 42.165264 ] } },
{ "type": "Feature", "properties": { "RCDTS": "060160970022007", "School": "Abraham Lincoln Elem School", "City": "Oak Park", "demSCHOOLlow": 16.3, "ISAT13": 73.6, "PSAE13": " ", "ACT13": " ", "LATITUDE": 41.868178, "LONGITUDE": -87.795657 }, "geometry": { "type": "Point", "coordinates": [ -87.795657, 41.868178 ] } },
{ "type": "Feature", "properties": { "RCDTS": "530900510022004", "School": "Central Primary Sch", "City": "Washington", "demSCHOOLlow": 16.3, "ISAT13": 71.8, "PSAE13": " ", "ACT13": " ", "LATITUDE": 40.708977, "LONGITUDE": -89.423283 }, "geometry": { "type": "Point", "coordinates": [ -89.423283, 40.708977 ] } },
{ "type": "Feature", "properties": { "RCDTS": "560991220022002", "School": "Haines Elem School", "City": "New Lenox", "demSCHOOLlow": 16.3, "ISAT13": 70.3, "PSAE13": " ", "ACT13": " ", "LATITUDE": 41.518909, "LONGITUDE": -87.970034 }, "geometry": { "type": "Point", "coordinates": [ -87.970034, 41.518909 ] } },
{ "type": "Feature", "properties": { "RCDTS": "170640040260001", "School": "Heyworth Jr-Sr High School", "City": "Heyworth", "demSCHOOLlow": 16.3, "ISAT13": 63.9, "PSAE13": 56.0, "ACT13": 21.2, "LATITUDE": 40.311998, "LONGITUDE": -88.976724 }, "geometry": { "type": "Point", "coordinates": [ -88.976724, 40.311998 ] } },
{ "type": "Feature", "properties": { "RCDTS": "190222030260013", "School": "Naperville North High School", "City": "Naperville", "demSCHOOLlow": 16.3, "ISAT13": " ", "PSAE13": 80.3, "ACT13": 24.7, "LATITUDE": 41.785805, "LONGITUDE": -88.154565 }, "geometry": { "type": "Point", "coordinates": [ -88.154565, 41.785805 ] } },
{ "type": "Feature", "properties": { "RCDTS": "530907090262003", "School": "Lincoln Elem School", "City": "Morton", "demSCHOOLlow": 16.4, "ISAT13": 86.4, "PSAE13": " ", "ACT13": " ", "LATITUDE": 40.60581, "LONGITUDE": -89.445342 }, "geometry": { "type": "Point", "coordinates": [ -89.445342, 40.60581 ] } },
{ "type": "Feature", "properties": { "RCDTS": "190220440022005", "School": "Wm Hammerschmidt Elem School", "City": "Lombard", "demSCHOOLlow": 16.5, "ISAT13": 84.9, "PSAE13": " ", "ACT13": " ", "LATITUDE": 41.874547, "LONGITUDE": -88.012981 }, "geometry": { "type": "Point", "coordinates": [ -88.012981, 41.874547 ] } },
{ "type": "Feature", "properties": { "RCDTS": "410570070262012", "School": "Albert Cassens Elementary", "City": "Glen Carbon", "demSCHOOLlow": 16.5, "ISAT13": 79.8, "PSAE13": " ", "ACT13": " ", "LATITUDE": 38.751249, "LONGITUDE": -89.936042 }, "geometry": { "type": "Point", "coordinates": [ -89.936042, 38.751249 ] } },
{ "type": "Feature", "properties": { "RCDTS": "440630260042005", "School": "Deer Path Elem School", "City": "Cary", "demSCHOOLlow": 16.5, "ISAT13": 77.2, "PSAE13": " ", "ACT13": " ", "LATITUDE": 42.234391, "LONGITUDE": -88.235729 }, "geometry": { "type": "Point", "coordinates": [ -88.235729, 42.234391 ] } },
{ "type": "Feature", "properties": { "RCDTS": "560992020222007", "School": "Wesmere Elementary School", "City": "Plainfield", "demSCHOOLlow": 16.5, "ISAT13": 61.7, "PSAE13": " ", "ACT13": " ", "LATITUDE": 41.554797, "LONGITUDE": -88.216861 }, "geometry": { "type": "Point", "coordinates": [ -88.216861, 41.554797 ] } },
{ "type": "Feature", "properties": { "RCDTS": "041011330042001", "School": "Prairie Hill Elem School", "City": "South Beloit", "demSCHOOLlow": 16.6, "ISAT13": 82.6, "PSAE13": " ", "ACT13": " ", "LATITUDE": 42.474524, "LONGITUDE": -89.000087 }, "geometry": { "type": "Point", "coordinates": [ -89.000087, 42.474524 ] } },
{ "type": "Feature", "properties": { "RCDTS": "560992020222014", "School": "Lincoln Elementary", "City": "Plainfield", "demSCHOOLlow": 16.6, "ISAT13": 74.6, "PSAE13": " ", "ACT13": " ", "LATITUDE": 41.614353, "LONGITUDE": -88.230858 }, "geometry": { "type": "Point", "coordinates": [ -88.230858, 41.614353 ] } },
{ "type": "Feature", "properties": { "RCDTS": "090101690041001", "School": "St Joseph Middle School", "City": "Saint Joseph", "demSCHOOLlow": 16.6, "ISAT13": 71.4, "PSAE13": " ", "ACT13": " ", "LATITUDE": 40.108139, "LONGITUDE": -88.037528 }, "geometry": { "type": "Point", "coordinates": [ -88.037528, 40.108139 ] } },
{ "type": "Feature", "properties": { "RCDTS": "510840050261002", "School": "Glenwood Middle School", "City": "Chatham", "demSCHOOLlow": 16.6, "ISAT13": 69.4, "PSAE13": " ", "ACT13": " ", "LATITUDE": 39.673461, "LONGITUDE": -89.655964 }, "geometry": { "type": "Point", "coordinates": [ -89.655964, 39.673461 ] } },
{ "type": "Feature", "properties": { "RCDTS": "560991220021005", "School": "Alex M Martino Jr High School", "City": "New Lenox", "demSCHOOLlow": 16.6, "ISAT13": 61.0, "PSAE13": " ", "ACT13": " ", "LATITUDE": 41.505228, "LONGITUDE": -87.945319 }, "geometry": { "type": "Point", "coordinates": [ -87.945319, 41.505228 ] } },
{ "type": "Feature", "properties": { "RCDTS": "190221080160001", "School": "Lake Park High School", "City": "Roselle", "demSCHOOLlow": 16.6, "ISAT13": " ", "PSAE13": 70.9, "ACT13": 22.3, "LATITUDE": 41.989837, "LONGITUDE": -88.047897 }, "geometry": { "type": "Point", "coordinates": [ -88.047897, 41.989837 ] } },
{ "type": "Feature", "properties": { "RCDTS": "410570020262005", "School": "St Jacob Elem School", "City": "Saint Jacob", "demSCHOOLlow": 16.7, "ISAT13": 74.8, "PSAE13": " ", "ACT13": " ", "LATITUDE": 38.716829, "LONGITUDE": -89.770414 }, "geometry": { "type": "Point", "coordinates": [ -89.770414, 38.716829 ] } },
{ "type": "Feature", "properties": { "RCDTS": "050162140170004", "School": "John Hersey High School", "City": "Arlington Heights", "demSCHOOLlow": 16.8, "ISAT13": " ", "PSAE13": 79.3, "ACT13": 24.6, "LATITUDE": 42.102726, "LONGITUDE": -87.963694 }, "geometry": { "type": "Point", "coordinates": [ -87.963694, 42.102726 ] } },
{ "type": "Feature", "properties": { "RCDTS": "150162990252087", "School": "Blaine Elem School", "City": "Chicago", "demSCHOOLlow": 16.9, "ISAT13": 87.8, "PSAE13": " ", "ACT13": " ", "LATITUDE": 41.950726, "LONGITUDE": -87.664897 }, "geometry": { "type": "Point", "coordinates": [ -87.664897, 41.950726 ] } },
{ "type": "Feature", "properties": { "RCDTS": "190220340022002", "School": "Winfield Central School", "City": "Winfield", "demSCHOOLlow": 16.9, "ISAT13": 83.9, "PSAE13": " ", "ACT13": " ", "LATITUDE": 41.874255, "LONGITUDE": -88.157895 }, "geometry": { "type": "Point", "coordinates": [ -88.157895, 41.874255 ] } },
{ "type": "Feature", "properties": { "RCDTS": "340490730042004", "School": "Hawthorn Elem School South", "City": "Vernon Hills", "demSCHOOLlow": 16.9, "ISAT13": 80.5, "PSAE13": " ", "ACT13": " ", "LATITUDE": 42.237755, "LONGITUDE": -87.972354 }, "geometry": { "type": "Point", "coordinates": [ -87.972354, 42.237755 ] } },
{ "type": "Feature", "properties": { "RCDTS": "150162990252053", "School": "Alcott Elem School", "City": "Chicago", "demSCHOOLlow": 16.9, "ISAT13": 80.1, "PSAE13": " ", "ACT13": " ", "LATITUDE": 41.930382, "LONGITUDE": -87.646456 }, "geometry": { "type": "Point", "coordinates": [ -87.646456, 41.930382 ] } },
{ "type": "Feature", "properties": { "RCDTS": "190222030262003", "School": "Elmwood Elem School", "City": "Naperville", "demSCHOOLlow": 17.0, "ISAT13": 73.0, "PSAE13": " ", "ACT13": " ", "LATITUDE": 41.754458, "LONGITUDE": -88.148598 }, "geometry": { "type": "Point", "coordinates": [ -88.148598, 41.754458 ] } },
{ "type": "Feature", "properties": { "RCDTS": "240473080262006", "School": "Old Post Elementary School", "City": "Oswego", "demSCHOOLlow": 17.1, "ISAT13": 84.6, "PSAE13": " ", "ACT13": " ", "LATITUDE": 41.705707, "LONGITUDE": -88.330236 }, "geometry": { "type": "Point", "coordinates": [ -88.330236, 41.705707 ] } },
{ "type": "Feature", "properties": { "RCDTS": "340492200261003", "School": "Barrington Middle Sch Station", "City": "Barrington", "demSCHOOLlow": 17.1, "ISAT13": 81.0, "PSAE13": " ", "ACT13": " ", "LATITUDE": 42.154095, "LONGITUDE": -88.121513 }, "geometry": { "type": "Point", "coordinates": [ -88.121513, 42.154095 ] } },
{ "type": "Feature", "properties": { "RCDTS": "340492200260004", "School": "Barrington High School", "City": "Barrington", "demSCHOOLlow": 17.1, "ISAT13": " ", "PSAE13": 80.1, "ACT13": 24.2, "LATITUDE": 42.154901, "LONGITUDE": -88.126102 }, "geometry": { "type": "Point", "coordinates": [ -88.126102, 42.154901 ] } },
{ "type": "Feature", "properties": { "RCDTS": "160194320260003", "School": "Somonauk High School", "City": "Somonauk", "demSCHOOLlow": 17.1, "ISAT13": " ", "PSAE13": 49.3, "ACT13": 20.4, "LATITUDE": 41.633747, "LONGITUDE": -88.676655 }, "geometry": { "type": "Point", "coordinates": [ -88.676655, 41.633747 ] } },
{ "type": "Feature", "properties": { "RCDTS": "050160150042004", "School": "Marion Jordan Elem School", "City": "Palatine", "demSCHOOLlow": 17.2, "ISAT13": 86.8, "PSAE13": " ", "ACT13": " ", "LATITUDE": 42.113535, "LONGITUDE": -88.072889 }, "geometry": { "type": "Point", "coordinates": [ -88.072889, 42.113535 ] } },
{ "type": "Feature", "properties": { "RCDTS": "050160150042006", "School": "Hunting Ridge Elem School", "City": "Palatine", "demSCHOOLlow": 17.2, "ISAT13": 84.1, "PSAE13": " ", "ACT13": " ", "LATITUDE": 42.095624, "LONGITUDE": -88.070905 }, "geometry": { "type": "Point", "coordinates": [ -88.070905, 42.095624 ] } },
{ "type": "Feature", "properties": { "RCDTS": "190220890042002", "School": "Briar Glen Elem School", "City": "Wheaton", "demSCHOOLlow": 17.2, "ISAT13": 80.2, "PSAE13": " ", "ACT13": " ", "LATITUDE": 41.838902, "LONGITUDE": -88.085875 }, "geometry": { "type": "Point", "coordinates": [ -88.085875, 41.838902 ] } },
{ "type": "Feature", "properties": { "RCDTS": "150162990252182", "School": "Ebinger Elem School", "City": "Chicago", "demSCHOOLlow": 17.2, "ISAT13": 79.5, "PSAE13": " ", "ACT13": " ", "LATITUDE": 42.004305, "LONGITUDE": -87.810505 }, "geometry": { "type": "Point", "coordinates": [ -87.810505, 42.004305 ] } },
{ "type": "Feature", "properties": { "RCDTS": "500821130022001", "School": "Wolf Branch Elem School", "City": "Swansea", "demSCHOOLlow": 17.2, "ISAT13": 66.3, "PSAE13": " ", "ACT13": " ", "LATITUDE": 38.556767, "LONGITUDE": -89.989507 }, "geometry": { "type": "Point", "coordinates": [ -89.989507, 38.556767 ] } },
{ "type": "Feature", "properties": { "RCDTS": "280372230262002", "School": "C R Hanna Elem School", "City": "Orion", "demSCHOOLlow": 17.2, "ISAT13": 65.3, "PSAE13": " ", "ACT13": " ", "LATITUDE": 41.350102, "LONGITUDE": -90.373603 }, "geometry": { "type": "Point", "coordinates": [ -90.373603, 41.350102 ] } },
{ "type": "Feature", "properties": { "RCDTS": "060162080170001", "School": "Riverside Brookfield Twp HS", "City": "Riverside", "demSCHOOLlow": 17.2, "ISAT13": " ", "PSAE13": 69.0, "ACT13": 22.6, "LATITUDE": 41.828069, "LONGITUDE": -87.828542 }, "geometry": { "type": "Point", "coordinates": [ -87.828542, 41.828069 ] } },
{ "type": "Feature", "properties": { "RCDTS": "240473080262013", "School": "Wolfs Crossing Elem School", "City": "Aurora", "demSCHOOLlow": 17.3, "ISAT13": 76.9, "PSAE13": " ", "ACT13": " ", "LATITUDE": 41.694581, "LONGITUDE": -88.255639 }, "geometry": { "type": "Point", "coordinates": [ -88.255639, 41.694581 ] } },
{ "type": "Feature", "properties": { "RCDTS": "500820900042006", "School": "Delores Moye Elem School", "City": "O Fallon", "demSCHOOLlow": 17.4, "ISAT13": 77.3, "PSAE13": " ", "ACT13": " ", "LATITUDE": 38.622665, "LONGITUDE": -89.888358 }, "geometry": { "type": "Point", "coordinates": [ -89.888358, 38.622665 ] } },
{ "type": "Feature", "properties": { "RCDTS": "560991590021001", "School": "Mokena Jr High School", "City": "Mokena", "demSCHOOLlow": 17.4, "ISAT13": 63.2, "PSAE13": " ", "ACT13": " ", "LATITUDE": 41.529909, "LONGITUDE": -87.865775 }, "geometry": { "type": "Point", "coordinates": [ -87.865775, 41.529909 ] } },
{ "type": "Feature", "properties": { "RCDTS": "500820190260001", "School": "Mascoutah High School", "City": "Mascoutah", "demSCHOOLlow": 17.4, "ISAT13": " ", "PSAE13": 72.2, "ACT13": 21.9, "LATITUDE": 38.496639, "LONGITUDE": -89.819805 }, "geometry": { "type": "Point", "coordinates": [ -89.819805, 38.496639 ] } },
{ "type": "Feature", "properties": { "RCDTS": "190222030262008", "School": "Maplebrook Elem School", "City": "Naperville", "demSCHOOLlow": 17.5, "ISAT13": 72.0, "PSAE13": " ", "ACT13": " ", "LATITUDE": 41.740185, "LONGITUDE": -88.134096 }, "geometry": { "type": "Point", "coordinates": [ -88.134096, 41.740185 ] } },
{ "type": "Feature", "properties": { "RCDTS": "190220990160001", "School": "Comm H S Dist 99 - North H S", "City": "Downers Grove", "demSCHOOLlow": 17.5, "ISAT13": " ", "PSAE13": 74.4, "ACT13": 23.6, "LATITUDE": 41.80668, "LONGITUDE": -88.011024 }, "geometry": { "type": "Point", "coordinates": [ -88.011024, 41.80668 ] } },
{ "type": "Feature", "properties": { "RCDTS": "480721500251015", "School": "Washington Gifted School", "City": "Peoria", "demSCHOOLlow": 17.6, "ISAT13": 98.0, "PSAE13": " ", "ACT13": " ", "LATITUDE": 40.732992, "LONGITUDE": -89.568507 }, "geometry": { "type": "Point", "coordinates": [ -89.568507, 40.732992 ] } },
{ "type": "Feature", "properties": { "RCDTS": "440630460032001", "School": "Prairie Grove Elem School", "City": "Crystal Lake", "demSCHOOLlow": 17.6, "ISAT13": 70.1, "PSAE13": " ", "ACT13": " ", "LATITUDE": 42.259412, "LONGITUDE": -88.261432 }, "geometry": { "type": "Point", "coordinates": [ -88.261432, 42.259412 ] } },
{ "type": "Feature", "properties": { "RCDTS": "070161180041004", "School": "Palos South Middle School", "City": "Palos Park", "demSCHOOLlow": 17.7, "ISAT13": 82.6, "PSAE13": " ", "ACT13": " ", "LATITUDE": 41.654132, "LONGITUDE": -87.820297 }, "geometry": { "type": "Point", "coordinates": [ -87.820297, 41.654132 ] } },
{ "type": "Feature", "properties": { "RCDTS": "340492200261004", "School": "Barrington Mdle Sch- Prairie Cmps", "City": "Barrington", "demSCHOOLlow": 17.7, "ISAT13": 80.5, "PSAE13": " ", "ACT13": " ", "LATITUDE": 42.128608, "LONGITUDE": -88.127759 }, "geometry": { "type": "Point", "coordinates": [ -88.127759, 42.128608 ] } },
{ "type": "Feature", "properties": { "RCDTS": "050160700022003", "School": "Park View Elem School", "City": "Morton Grove", "demSCHOOLlow": 17.7, "ISAT13": 77.4, "PSAE13": " ", "ACT13": " ", "LATITUDE": 42.044459, "LONGITUDE": -87.781014 }, "geometry": { "type": "Point", "coordinates": [ -87.781014, 42.044459 ] } },
{ "type": "Feature", "properties": { "RCDTS": "530900510022001", "School": "Central Intermediate Sch", "City": "Washington", "demSCHOOLlow": 17.7, "ISAT13": 74.5, "PSAE13": " ", "ACT13": " ", "LATITUDE": 40.706343, "LONGITUDE": -89.427731 }, "geometry": { "type": "Point", "coordinates": [ -89.427731, 40.706343 ] } },
{ "type": "Feature", "properties": { "RCDTS": "560992020222015", "School": "Charles Reed Elementary Sch", "City": "Plainfield", "demSCHOOLlow": 17.7, "ISAT13": 65.2, "PSAE13": " ", "ACT13": " ", "LATITUDE": 41.551309, "LONGITUDE": -88.267448 }, "geometry": { "type": "Point", "coordinates": [ -88.267448, 41.551309 ] } },
{ "type": "Feature", "properties": { "RCDTS": "190222040262015", "School": "Gwendolyn Brooks Elementary", "City": "Aurora", "demSCHOOLlow": 17.8, "ISAT13": 82.6, "PSAE13": " ", "ACT13": " ", "LATITUDE": 41.788691, "LONGITUDE": -88.250632 }, "geometry": { "type": "Point", "coordinates": [ -88.250632, 41.788691 ] } },
{ "type": "Feature", "properties": { "RCDTS": "530903080160001", "School": "Washington Comm High School", "City": "Washington", "demSCHOOLlow": 17.8, "ISAT13": " ", "PSAE13": 61.8, "ACT13": 21.6, "LATITUDE": 40.703434, "LONGITUDE": -89.41952 }, "geometry": { "type": "Point", "coordinates": [ -89.41952, 40.703434 ] } },
{ "type": "Feature", "properties": { "RCDTS": "150162990252384", "School": "Oriole Park Elem School", "City": "Chicago", "demSCHOOLlow": 17.9, "ISAT13": 87.9, "PSAE13": " ", "ACT13": " ", "LATITUDE": 41.978302, "LONGITUDE": -87.811897 }, "geometry": { "type": "Point", "coordinates": [ -87.811897, 41.978302 ] } },
{ "type": "Feature", "properties": { "RCDTS": "130140630022001", "School": "Albers Elem School", "City": "Albers", "demSCHOOLlow": 17.9, "ISAT13": 82.9, "PSAE13": " ", "ACT13": " ", "LATITUDE": 38.544521, "LONGITUDE": -89.613453 }, "geometry": { "type": "Point", "coordinates": [ -89.613453, 38.544521 ] } },
{ "type": "Feature", "properties": { "RCDTS": "480723230262005", "School": "Ridgeview Elementary School", "City": "Peoria", "demSCHOOLlow": 17.9, "ISAT13": 80.5, "PSAE13": " ", "ACT13": " ", "LATITUDE": 40.786349, "LONGITUDE": -89.653943 }, "geometry": { "type": "Point", "coordinates": [ -89.653943, 40.786349 ] } },
{ "type": "Feature", "properties": { "RCDTS": "390740250262006", "School": "Washington School", "City": "Monticello", "demSCHOOLlow": 17.9, "ISAT13": 71.0, "PSAE13": " ", "ACT13": " ", "LATITUDE": 40.019647, "LONGITUDE": -88.571906 }, "geometry": { "type": "Point", "coordinates": [ -88.571906, 40.019647 ] } },
{ "type": "Feature", "properties": { "RCDTS": "320380060260001", "School": "Cissna Park Sr High School", "City": "Cissna Park", "demSCHOOLlow": 17.9, "ISAT13": " ", "PSAE13": 72.6, "ACT13": 21.0, "LATITUDE": 40.569768, "LONGITUDE": -87.893006 }, "geometry": { "type": "Point", "coordinates": [ -87.893006, 40.569768 ] } },
{ "type": "Feature", "properties": { "RCDTS": "070161350022007", "School": "Prairie Elem School", "City": "Orland Park", "demSCHOOLlow": 18.0, "ISAT13": 85.6, "PSAE13": " ", "ACT13": " ", "LATITUDE": 41.632641, "LONGITUDE": -87.81978 }, "geometry": { "type": "Point", "coordinates": [ -87.81978, 41.632641 ] } },
{ "type": "Feature", "properties": { "RCDTS": "070161240022005", "School": "Southwest Elem School", "City": "Evergreen Park", "demSCHOOLlow": 18.0, "ISAT13": 72.7, "PSAE13": " ", "ACT13": " ", "LATITUDE": 41.713265, "LONGITUDE": -87.711405 }, "geometry": { "type": "Point", "coordinates": [ -87.711405, 41.713265 ] } },
{ "type": "Feature", "properties": { "RCDTS": "510840050262005", "School": "Glenwood Intermediate Sch", "City": "Chatham", "demSCHOOLlow": 18.0, "ISAT13": 69.8, "PSAE13": " ", "ACT13": " ", "LATITUDE": 39.673521, "LONGITUDE": -89.652386 }, "geometry": { "type": "Point", "coordinates": [ -89.652386, 39.673521 ] } },
{ "type": "Feature", "properties": { "RCDTS": "190220580022002", "School": "El Sierra Elem School", "City": "Downers Grove", "demSCHOOLlow": 18.0, "ISAT13": 69.7, "PSAE13": " ", "ACT13": " ", "LATITUDE": 41.762624, "LONGITUDE": -88.000252 }, "geometry": { "type": "Point", "coordinates": [ -88.000252, 41.762624 ] } },
{ "type": "Feature", "properties": { "RCDTS": "390550030260001", "School": "Mt Zion High School", "City": "Mount Zion", "demSCHOOLlow": 18.0, "ISAT13": " ", "PSAE13": 77.1, "ACT13": 22.2, "LATITUDE": 39.770849, "LONGITUDE": -88.874336 }, "geometry": { "type": "Point", "coordinates": [ -88.874336, 39.770849 ] } },
{ "type": "Feature", "properties": { "RCDTS": "560992050170001", "School": "Lockport Township High Sch East", "City": "Lockport", "demSCHOOLlow": 18.0, "ISAT13": " ", "PSAE13": 60.8, "ACT13": 21.8, "LATITUDE": 41.590425, "LONGITUDE": -88.029151 }, "geometry": { "type": "Point", "coordinates": [ -88.029151, 41.590425 ] } },
{ "type": "Feature", "properties": { "RCDTS": "280372260260001", "School": "Annawan High School", "City": "Annawan", "demSCHOOLlow": 18.0, "ISAT13": " ", "PSAE13": 54.4, "ACT13": 22.2, "LATITUDE": 41.394091, "LONGITUDE": -89.911398 }, "geometry": { "type": "Point", "coordinates": [ -89.911398, 41.394091 ] } },
{ "type": "Feature", "properties": { "RCDTS": "560991220022010", "School": "Arnold J Tyler School", "City": "New Lenox", "demSCHOOLlow": 18.1, "ISAT13": 59.8, "PSAE13": " ", "ACT13": " ", "LATITUDE": 41.497785, "LONGITUDE": -87.955093 }, "geometry": { "type": "Point", "coordinates": [ -87.955093, 41.497785 ] } },
{ "type": "Feature", "properties": { "RCDTS": "170640070260002", "School": "Lexington High School", "City": "Lexington", "demSCHOOLlow": 18.1, "ISAT13": " ", "PSAE13": 58.3, "ACT13": 21.5, "LATITUDE": 40.645165043, "LONGITUDE": -88.779671274 }, "geometry": { "type": "Point", "coordinates": [ -88.779671274, 40.645165043 ] } },
{ "type": "Feature", "properties": { "RCDTS": "050160310021001", "School": "Field School", "City": "Northbrook", "demSCHOOLlow": 18.2, "ISAT13": 76.9, "PSAE13": " ", "ACT13": " ", "LATITUDE": 42.115299, "LONGITUDE": -87.858549 }, "geometry": { "type": "Point", "coordinates": [ -87.858549, 42.115299 ] } },
{ "type": "Feature", "properties": { "RCDTS": "041011310042001", "School": "Kinnikinnick School", "City": "Roscoe", "demSCHOOLlow": 18.2, "ISAT13": 74.0, "PSAE13": " ", "ACT13": " ", "LATITUDE": 42.420032, "LONGITUDE": -89.011889 }, "geometry": { "type": "Point", "coordinates": [ -89.011889, 42.420032 ] } },
{ "type": "Feature", "properties": { "RCDTS": "510840050262004", "School": "Chatham Elem School", "City": "Chatham", "demSCHOOLlow": 18.2, "ISAT13": 69.5, "PSAE13": " ", "ACT13": " ", "LATITUDE": 39.670316, "LONGITUDE": -89.708599 }, "geometry": { "type": "Point", "coordinates": [ -89.708599, 39.670316 ] } },
{ "type": "Feature", "properties": { "RCDTS": "440630120260002", "School": "Johnsburg High School", "City": "Johnsburg", "demSCHOOLlow": 18.2, "ISAT13": " ", "PSAE13": 59.6, "ACT13": 20.5, "LATITUDE": 42.401333, "LONGITUDE": -88.235584 }, "geometry": { "type": "Point", "coordinates": [ -88.235584, 42.401333 ] } },
{ "type": "Feature", "properties": { "RCDTS": "56099207U260001", "School": "Peotone High School", "City": "Peotone", "demSCHOOLlow": 18.2, "ISAT13": " ", "PSAE13": 58.4, "ACT13": 20.5, "LATITUDE": 41.334003, "LONGITUDE": -87.80278 }, "geometry": { "type": "Point", "coordinates": [ -87.80278, 41.334003 ] } },
{ "type": "Feature", "properties": { "RCDTS": "490813000260001", "School": "Rockridge High School", "City": "Taylor Ridge", "demSCHOOLlow": 18.2, "ISAT13": " ", "PSAE13": 55.9, "ACT13": 20.3, "LATITUDE": 41.386583, "LONGITUDE": -90.765334 }, "geometry": { "type": "Point", "coordinates": [ -90.765334, 41.386583 ] } },
{ "type": "Feature", "properties": { "RCDTS": "350500820042001", "School": "Deer Park C C Elem School", "City": "Ottawa", "demSCHOOLlow": 18.3, "ISAT13": 82.2, "PSAE13": " ", "ACT13": " ", "LATITUDE": 41.268969, "LONGITUDE": -88.96674 }, "geometry": { "type": "Point", "coordinates": [ -88.96674, 41.268969 ] } },
{ "type": "Feature", "properties": { "RCDTS": "310453030261012", "School": "Wredling Middle School", "City": "St Charles", "demSCHOOLlow": 18.3, "ISAT13": 80.4, "PSAE13": " ", "ACT13": " ", "LATITUDE": 41.92981611, "LONGITUDE": -88.282776101 }, "geometry": { "type": "Point", "coordinates": [ -88.282776101, 41.92981611 ] } },
{ "type": "Feature", "properties": { "RCDTS": "440630260041004", "School": "Cary Jr High School", "City": "Cary", "demSCHOOLlow": 18.3, "ISAT13": 76.6, "PSAE13": " ", "ACT13": " ", "LATITUDE": 42.234378, "LONGITUDE": -88.234517 }, "geometry": { "type": "Point", "coordinates": [ -88.234517, 42.234378 ] } },
{ "type": "Feature", "properties": { "RCDTS": "480723090262002", "School": "Brimfield Grade School", "City": "Brimfield", "demSCHOOLlow": 18.3, "ISAT13": 73.7, "PSAE13": " ", "ACT13": " ", "LATITUDE": 40.841273, "LONGITUDE": -89.882514 }, "geometry": { "type": "Point", "coordinates": [ -89.882514, 40.841273 ] } },
{ "type": "Feature", "properties": { "RCDTS": "480723280032001", "School": "Hollis Consolidated Grade Sch", "City": "Peoria", "demSCHOOLlow": 18.3, "ISAT13": 68.3, "PSAE13": " ", "ACT13": " ", "LATITUDE": 40.609668, "LONGITUDE": -89.682595 }, "geometry": { "type": "Point", "coordinates": [ -89.682595, 40.609668 ] } },
{ "type": "Feature", "properties": { "RCDTS": "310453020261001", "School": "Harter Middle School", "City": "Sugar Grove", "demSCHOOLlow": 18.3, "ISAT13": 67.9, "PSAE13": " ", "ACT13": " ", "LATITUDE": 41.795646, "LONGITUDE": -88.459122 }, "geometry": { "type": "Point", "coordinates": [ -88.459122, 41.795646 ] } },
{ "type": "Feature", "properties": { "RCDTS": "130140030260006", "School": "Wesclin Sr High School", "City": "Trenton", "demSCHOOLlow": 18.3, "ISAT13": " ", "PSAE13": 66.3, "ACT13": 21.5, "LATITUDE": 38.568043, "LONGITUDE": -89.686747 }, "geometry": { "type": "Point", "coordinates": [ -89.686747, 38.568043 ] } },
{ "type": "Feature", "properties": { "RCDTS": "190220890041003", "School": "Glen Crest Middle School", "City": "Glen Ellyn", "demSCHOOLlow": 18.4, "ISAT13": 77.9, "PSAE13": " ", "ACT13": " ", "LATITUDE": 41.852063, "LONGITUDE": -88.055893 }, "geometry": { "type": "Point", "coordinates": [ -88.055893, 41.852063 ] } },
{ "type": "Feature", "properties": { "RCDTS": "490813000261002", "School": "Rockridge Jr High School", "City": "Taylor Ridge", "demSCHOOLlow": 18.4, "ISAT13": 65.1, "PSAE13": " ", "ACT13": " ", "LATITUDE": 41.386583, "LONGITUDE": -90.765334 }, "geometry": { "type": "Point", "coordinates": [ -90.765334, 41.386583 ] } },
{ "type": "Feature", "properties": { "RCDTS": "310453020260001", "School": "Kaneland Senior High School", "City": "Maple Park", "demSCHOOLlow": 18.4, "ISAT13": " ", "PSAE13": 68.6, "ACT13": 21.1, "LATITUDE": 41.880341, "LONGITUDE": -88.527648 }, "geometry": { "type": "Point", "coordinates": [ -88.527648, 41.880341 ] } },
{ "type": "Feature", "properties": { "RCDTS": "050160340042001", "School": "Glen Grove Elem School", "City": "Glenview", "demSCHOOLlow": 18.5, "ISAT13": 87.5, "PSAE13": " ", "ACT13": " ", "LATITUDE": 42.073129, "LONGITUDE": -87.853377 }, "geometry": { "type": "Point", "coordinates": [ -87.853377, 42.073129 ] } },
{ "type": "Feature", "properties": { "RCDTS": "190220890042006", "School": "Westfield Elem School", "City": "Glen Ellyn", "demSCHOOLlow": 18.5, "ISAT13": 75.7, "PSAE13": " ", "ACT13": " ", "LATITUDE": 41.843097, "LONGITUDE": -88.045164 }, "geometry": { "type": "Point", "coordinates": [ -88.045164, 41.843097 ] } },
{ "type": "Feature", "properties": { "RCDTS": "560992020222019", "School": "Elizabeth Eichelberger Elem Sch", "City": "Plainfield", "demSCHOOLlow": 18.5, "ISAT13": 71.4, "PSAE13": " ", "ACT13": " ", "LATITUDE": 41.657036, "LONGITUDE": -88.16506 }, "geometry": { "type": "Point", "coordinates": [ -88.16506, 41.657036 ] } },
{ "type": "Feature", "properties": { "RCDTS": "390740250261002", "School": "Monticello Middle School", "City": "Monticello", "demSCHOOLlow": 18.5, "ISAT13": 69.6, "PSAE13": " ", "ACT13": " ", "LATITUDE": 40.025063, "LONGITUDE": -88.559409 }, "geometry": { "type": "Point", "coordinates": [ -88.559409, 40.025063 ] } },
{ "type": "Feature", "properties": { "RCDTS": "540920050260002", "School": "Catlin High School", "City": "Catlin", "demSCHOOLlow": 18.5, "ISAT13": " ", "PSAE13": 72.9, "ACT13": 21.0, "LATITUDE": 40.065075, "LONGITUDE": -87.711445 }, "geometry": { "type": "Point", "coordinates": [ -87.711445, 40.065075 ] } },
{ "type": "Feature", "properties": { "RCDTS": "240473080262012", "School": "Churchill Elem School", "City": "Oswego", "demSCHOOLlow": 18.7, "ISAT13": 78.8, "PSAE13": " ", "ACT13": " ", "LATITUDE": 41.694739, "LONGITUDE": -88.298942 }, "geometry": { "type": "Point", "coordinates": [ -88.298942, 41.694739 ] } },
{ "type": "Feature", "properties": { "RCDTS": "050160540042002", "School": "Buzz Aldrin Elem School", "City": "Schaumburg", "demSCHOOLlow": 18.7, "ISAT13": 71.4, "PSAE13": " ", "ACT13": " ", "LATITUDE": 42.01373, "LONGITUDE": -88.096002 }, "geometry": { "type": "Point", "coordinates": [ -88.096002, 42.01373 ] } },
{ "type": "Feature", "properties": { "RCDTS": "340491180262005", "School": "Robert Crown School", "City": "Wauconda", "demSCHOOLlow": 18.8, "ISAT13": 69.5, "PSAE13": " ", "ACT13": " ", "LATITUDE": 42.277357411, "LONGITUDE": -88.131816359 }, "geometry": { "type": "Point", "coordinates": [ -88.131816359, 42.277357411 ] } },
{ "type": "Feature", "properties": { "RCDTS": "410570020260001", "School": "Triad High School", "City": "Troy", "demSCHOOLlow": 18.8, "ISAT13": " ", "PSAE13": 65.6, "ACT13": 21.4, "LATITUDE": 38.717215, "LONGITUDE": -89.855751 }, "geometry": { "type": "Point", "coordinates": [ -89.855751, 38.717215 ] } },
{ "type": "Feature", "properties": { "RCDTS": "56099033C042006", "School": "Luther J Schilling School", "City": "Homer Glen", "demSCHOOLlow": 18.9, "ISAT13": 74.2, "PSAE13": " ", "ACT13": " ", "LATITUDE": 41.596494, "LONGITUDE": -87.977507 }, "geometry": { "type": "Point", "coordinates": [ -87.977507, 41.596494 ] } },
{ "type": "Feature", "properties": { "RCDTS": "310453020262008", "School": "Kaneland John Stewart Elem Sch", "City": "Elburn", "demSCHOOLlow": 18.9, "ISAT13": 68.9, "PSAE13": " ", "ACT13": " ", "LATITUDE": 41.899397, "LONGITUDE": -88.45898 }, "geometry": { "type": "Point", "coordinates": [ -88.45898, 41.899397 ] } },
{ "type": "Feature", "properties": { "RCDTS": "240473080262016", "School": "Hunt Club Elem", "City": "Oswego", "demSCHOOLlow": 19.0, "ISAT13": 72.5, "PSAE13": " ", "ACT13": " ", "LATITUDE": 41.652933, "LONGITUDE": -88.37516 }, "geometry": { "type": "Point", "coordinates": [ -88.37516, 41.652933 ] } },
{ "type": "Feature", "properties": { "RCDTS": "050160310022002", "School": "Henry Winkelman Elem School", "City": "Glenview", "demSCHOOLlow": 19.0, "ISAT13": 71.7, "PSAE13": " ", "ACT13": " ", "LATITUDE": 42.118054, "LONGITUDE": -87.858516 }, "geometry": { "type": "Point", "coordinates": [ -87.858516, 42.118054 ] } },
{ "type": "Feature", "properties": { "RCDTS": "170640020260003", "School": "LeRoy High School", "City": "Le Roy", "demSCHOOLlow": 19.0, "ISAT13": " ", "PSAE13": 63.5, "ACT13": 19.9, "LATITUDE": 40.347189, "LONGITUDE": -88.755898 }, "geometry": { "type": "Point", "coordinates": [ -88.755898, 40.347189 ] } },
{ "type": "Feature", "properties": { "RCDTS": "410570070262010", "School": "Woodland Elementary School", "City": "Edwardsville", "demSCHOOLlow": 19.1, "ISAT13": 78.9, "PSAE13": " ", "ACT13": " ", "LATITUDE": 38.805499, "LONGITUDE": -89.969035 }, "geometry": { "type": "Point", "coordinates": [ -89.969035, 38.805499 ] } },
{ "type": "Feature", "properties": { "RCDTS": "560990920022005", "School": "Ludwig Elem School", "City": "Lockport", "demSCHOOLlow": 19.1, "ISAT13": 75.9, "PSAE13": " ", "ACT13": " ", "LATITUDE": 41.605118, "LONGITUDE": -88.047313 }, "geometry": { "type": "Point", "coordinates": [ -88.047313, 41.605118 ] } },
{ "type": "Feature", "properties": { "RCDTS": "170640070262001", "School": "Lexington Elem School", "City": "Lexington", "demSCHOOLlow": 19.1, "ISAT13": 72.8, "PSAE13": " ", "ACT13": " ", "LATITUDE": 40.644305, "LONGITUDE": -88.780934 }, "geometry": { "type": "Point", "coordinates": [ -88.780934, 40.644305 ] } },
{ "type": "Feature", "properties": { "RCDTS": "560991220022013", "School": "Oster-Oakview  School", "City": "New Lenox", "demSCHOOLlow": 19.1, "ISAT13": 68.9, "PSAE13": " ", "ACT13": " ", "LATITUDE": 41.501912, "LONGITUDE": -87.965825 }, "geometry": { "type": "Point", "coordinates": [ -87.965825, 41.501912 ] } },
{ "type": "Feature", "properties": { "RCDTS": "240473080262009", "School": "Homestead Elementary School", "City": "Aurora", "demSCHOOLlow": 19.2, "ISAT13": 81.6, "PSAE13": " ", "ACT13": " ", "LATITUDE": 41.713688, "LONGITUDE": -88.249014 }, "geometry": { "type": "Point", "coordinates": [ -88.249014, 41.713688 ] } },
{ "type": "Feature", "properties": { "RCDTS": "090101970042002", "School": "Prairieview-Ogden South Elem", "City": "Ogden", "demSCHOOLlow": 19.2, "ISAT13": 76.2, "PSAE13": " ", "ACT13": " ", "LATITUDE": 40.115064, "LONGITUDE": -87.958712 }, "geometry": { "type": "Point", "coordinates": [ -87.958712, 40.115064 ] } },
{ "type": "Feature", "properties": { "RCDTS": "560990920022004", "School": "Reed Elem School", "City": "Homer Glen", "demSCHOOLlow": 19.2, "ISAT13": 69.0, "PSAE13": " ", "ACT13": " ", "LATITUDE": 41.627916, "LONGITUDE": -87.983472 }, "geometry": { "type": "Point", "coordinates": [ -87.983472, 41.627916 ] } },
{ "type": "Feature", "properties": { "RCDTS": "190222000262007", "School": "Longfellow Elem School", "City": "Wheaton", "demSCHOOLlow": 19.4, "ISAT13": 90.8, "PSAE13": " ", "ACT13": " ", "LATITUDE": 41.867594, "LONGITUDE": -88.102828 }, "geometry": { "type": "Point", "coordinates": [ -88.102828, 41.867594 ] } },
{ "type": "Feature", "properties": { "RCDTS": "310450460222048", "School": "Prairieview Elementary School", "City": "Bartlett", "demSCHOOLlow": 19.4, "ISAT13": 78.4, "PSAE13": " ", "ACT13": " ", "LATITUDE": 41.957173, "LONGITUDE": -88.171406 }, "geometry": { "type": "Point", "coordinates": [ -88.171406, 41.957173 ] } },
{ "type": "Feature", "properties": { "RCDTS": "340491170160001", "School": "Antioch Comm High School", "City": "Antioch", "demSCHOOLlow": 19.4, "ISAT13": " ", "PSAE13": 70.0, "ACT13": 20.8, "LATITUDE": 42.471309, "LONGITUDE": -88.093541 }, "geometry": { "type": "Point", "coordinates": [ -88.093541, 42.471309 ] } },
{ "type": "Feature", "properties": { "RCDTS": "560992020221005", "School": "Drauden Point Middle School", "City": "Plainfield", "demSCHOOLlow": 19.5, "ISAT13": 68.0, "PSAE13": " ", "ACT13": " ", "LATITUDE": 41.555736, "LONGITUDE": -88.228972 }, "geometry": { "type": "Point", "coordinates": [ -88.228972, 41.555736 ] } },
{ "type": "Feature", "properties": { "RCDTS": "240471150262009", "School": "Autumn Creek Elem Sch", "City": "Yorkville", "demSCHOOLlow": 19.5, "ISAT13": 65.4, "PSAE13": " ", "ACT13": " ", "LATITUDE": 41.669383, "LONGITUDE": -88.421614 }, "geometry": { "type": "Point", "coordinates": [ -88.421614, 41.669383 ] } },
{ "type": "Feature", "properties": { "RCDTS": "050160540041001", "School": "Jane Addams JHS", "City": "Schaumburg", "demSCHOOLlow": 19.6, "ISAT13": 75.8, "PSAE13": " ", "ACT13": " ", "LATITUDE": 42.012517, "LONGITUDE": -88.119234 }, "geometry": { "type": "Point", "coordinates": [ -88.119234, 42.012517 ] } },
{ "type": "Feature", "properties": { "RCDTS": "080892030261001", "School": "Orangeville Jr High School", "City": "Orangeville", "demSCHOOLlow": 19.6, "ISAT13": 67.5, "PSAE13": " ", "ACT13": " ", "LATITUDE": 42.467927, "LONGITUDE": -89.642514 }, "geometry": { "type": "Point", "coordinates": [ -89.642514, 42.467927 ] } },
{ "type": "Feature", "properties": { "RCDTS": "500822030170001", "School": "O Fallon High School", "City": "O Fallon", "demSCHOOLlow": 19.6, "ISAT13": " ", "PSAE13": 72.3, "ACT13": 23.3, "LATITUDE": 38.585977, "LONGITUDE": -89.900321 }, "geometry": { "type": "Point", "coordinates": [ -89.900321, 38.585977 ] } },
{ "type": "Feature", "properties": { "RCDTS": "530907090262001", "School": "Grundy Elem School", "City": "Morton", "demSCHOOLlow": 19.7, "ISAT13": 87.9, "PSAE13": " ", "ACT13": " ", "LATITUDE": 40.599369, "LONGITUDE": -89.459355 }, "geometry": { "type": "Point", "coordinates": [ -89.459355, 40.599369 ] } },
{ "type": "Feature", "properties": { "RCDTS": "090100030262003", "School": "Lincoln Trail Elem School", "City": "Mahomet", "demSCHOOLlow": 19.7, "ISAT13": 75.6, "PSAE13": " ", "ACT13": " ", "LATITUDE": 40.198823, "LONGITUDE": -88.407711 }, "geometry": { "type": "Point", "coordinates": [ -88.407711, 40.198823 ] } },
{ "type": "Feature", "properties": { "RCDTS": "510840050262003", "School": "Ball Elementary School", "City": "Chatham", "demSCHOOLlow": 19.8, "ISAT13": 74.6, "PSAE13": " ", "ACT13": " ", "LATITUDE": 39.671671, "LONGITUDE": -89.652518 }, "geometry": { "type": "Point", "coordinates": [ -89.652518, 39.671671 ] } },
{ "type": "Feature", "properties": { "RCDTS": "470712210262002", "School": "German Valley Grade School", "City": "German Valley", "demSCHOOLlow": 19.8, "ISAT13": 68.2, "PSAE13": " ", "ACT13": " ", "LATITUDE": 42.157404, "LONGITUDE": -89.472799 }, "geometry": { "type": "Point", "coordinates": [ -89.472799, 42.157404 ] } },
{ "type": "Feature", "properties": { "RCDTS": "130140710160001", "School": "Central Comm High School", "City": "Breese", "demSCHOOLlow": 19.8, "ISAT13": " ", "PSAE13": 68.4, "ACT13": 19.7, "LATITUDE": 38.6111, "LONGITUDE": -89.5604 }, "geometry": { "type": "Point", "coordinates": [ -89.5604, 38.6111 ] } },