{
"type": "FeatureCollection",
"crs": { "type": "name", "properties": { "name": "urn:ogc:def:crs:OGC:1.3:CRS84" } },
                                                                                
"features": [
{ "type": "Feature", "properties": { "RCDTS": "050160210042013", "School": "Booth Tarkington Elem School", "City": "Wheeling", "demSCHOOLlow": 50.0, "ISAT13": 64.2, "PSAE13": " ", "ACT13": " ", "LATITUDE": 42.13377, "LONGITUDE": -87.950785 }, "geometry": { "type": "Point", "coordinates": [ -87.950785, 42.13377 ] } },
{ "type": "Feature", "properties": { "RCDTS": "070161110022007", "School": "F B Mccord Elem School", "City": "Burbank", "demSCHOOLlow": 50.0, "ISAT13": 46.2, "PSAE13": " ", "ACT13": " ", "LATITUDE": 41.738276, "LONGITUDE": -87.784725 }, "geometry": { "type": "Point", "coordinates": [ -87.784725, 41.738276 ] } },
{ "type": "Feature", "properties": { "RCDTS": "150162990250862", "School": "Chicago Excel Acad", "City": "Chicago", "demSCHOOLlow": 50.0, "ISAT13": " ", "PSAE13": 0.6, "ACT13": " ", "LATITUDE": 41.692190519, "LONGITUDE": -87.65373244 }, "geometry": { "type": "Point", "coordinates": [ -87.65373244, 41.692190519 ] } },
{ "type": "Feature", "properties": { "RCDTS": "190220070022003", "School": "Westview Elem School", "City": "Wood Dale", "demSCHOOLlow": 50.0, "ISAT13": 54.9, "PSAE13": " ", "ACT13": " ", "LATITUDE": 41.960003, "LONGITUDE": -87.989824 }, "geometry": { "type": "Point", "coordinates": [ -87.989824, 41.960003 ] } },
{ "type": "Feature", "properties": { "RCDTS": "250410120042001", "School": "McClellan Elementary School", "City": "Mount Vernon", "demSCHOOLlow": 50.0, "ISAT13": 64.9, "PSAE13": " ", "ACT13": " ", "LATITUDE": 38.264102, "LONGITUDE": -88.948323 }, "geometry": { "type": "Point", "coordinates": [ -88.948323, 38.264102 ] } },
{ "type": "Feature", "properties": { "RCDTS": "280063030262003", "School": "Van Orin Elem School", "City": "Van Orin", "demSCHOOLlow": 50.0, "ISAT13": 26.2, "PSAE13": " ", "ACT13": " ", "LATITUDE": 41.551726, "LONGITUDE": -89.355839 }, "geometry": { "type": "Point", "coordinates": [ -89.355839, 41.551726 ] } },
{ "type": "Feature", "properties": { "RCDTS": "280881000261001", "School": "Stark County Junior High School", "City": "Toulon", "demSCHOOLlow": 50.0, "ISAT13": 62.1, "PSAE13": " ", "ACT13": " ", "LATITUDE": 41.096760789, "LONGITUDE": -89.864400684 }, "geometry": { "type": "Point", "coordinates": [ -89.864400684, 41.096760789 ] } },
{ "type": "Feature", "properties": { "RCDTS": "380540270022004", "School": "Central Elem School", "City": "Lincoln", "demSCHOOLlow": 50.0, "ISAT13": 59.2, "PSAE13": " ", "ACT13": " ", "LATITUDE": 40.149119, "LONGITUDE": -89.367943 }, "geometry": { "type": "Point", "coordinates": [ -89.367943, 40.149119 ] } },
{ "type": "Feature", "properties": { "RCDTS": "400560020261001", "School": "Northwestern Jr High School", "City": "Palmyra", "demSCHOOLlow": 50.0, "ISAT13": 70.8, "PSAE13": " ", "ACT13": " ", "LATITUDE": 39.423378, "LONGITUDE": -89.995882 }, "geometry": { "type": "Point", "coordinates": [ -89.995882, 39.423378 ] } },
{ "type": "Feature", "properties": { "RCDTS": "010011720221003", "School": "Quincy Jr High School", "City": "Quincy", "demSCHOOLlow": 50.1, "ISAT13": 45.1, "PSAE13": " ", "ACT13": " ", "LATITUDE": 39.931787, "LONGITUDE": -91.393653 }, "geometry": { "type": "Point", "coordinates": [ -91.393653, 39.931787 ] } },
{ "type": "Feature", "properties": { "RCDTS": "090100040262017", "School": "Robeson Elem School", "City": "Champaign", "demSCHOOLlow": 50.2, "ISAT13": 56.1, "PSAE13": " ", "ACT13": " ", "LATITUDE": 40.091436, "LONGITUDE": -88.286307 }, "geometry": { "type": "Point", "coordinates": [ -88.286307, 40.091436 ] } },
{ "type": "Feature", "properties": { "RCDTS": "100110080260006", "School": "Pana Sr High School", "City": "Pana", "demSCHOOLlow": 50.2, "ISAT13": " ", "PSAE13": 55.1, "ACT13": 18.8, "LATITUDE": 39.382496, "LONGITUDE": -89.088755 }, "geometry": { "type": "Point", "coordinates": [ -89.088755, 39.382496 ] } },
{ "type": "Feature", "properties": { "RCDTS": "260621700261002", "School": "Bushnell-Prairie City Jr High Sch", "City": "Bushnell", "demSCHOOLlow": 50.2, "ISAT13": 51.0, "PSAE13": " ", "ACT13": " ", "LATITUDE": 40.558783, "LONGITUDE": -90.511985 }, "geometry": { "type": "Point", "coordinates": [ -90.511985, 40.558783 ] } },
{ "type": "Feature", "properties": { "RCDTS": "480720660022001", "School": "Bartonville Elem School", "City": "Bartonville", "demSCHOOLlow": 50.2, "ISAT13": 51.0, "PSAE13": " ", "ACT13": " ", "LATITUDE": 40.650183, "LONGITUDE": -89.651972 }, "geometry": { "type": "Point", "coordinates": [ -89.651972, 40.650183 ] } },
{ "type": "Feature", "properties": { "RCDTS": "041012050252018", "School": "Brookview Elem School", "City": "Rockford", "demSCHOOLlow": 50.3, "ISAT13": 64.2, "PSAE13": " ", "ACT13": " ", "LATITUDE": 42.28843, "LONGITUDE": -89.014263 }, "geometry": { "type": "Point", "coordinates": [ -89.014263, 42.28843 ] } },
{ "type": "Feature", "properties": { "RCDTS": "050160590041012", "School": "Holmes Jr High School", "City": "Mt Prospect", "demSCHOOLlow": 50.3, "ISAT13": 60.8, "PSAE13": " ", "ACT13": " ", "LATITUDE": 42.051656365, "LONGITUDE": -87.965912378 }, "geometry": { "type": "Point", "coordinates": [ -87.965912378, 42.051656365 ] } },
{ "type": "Feature", "properties": { "RCDTS": "050160650042019", "School": "Walker Elem School", "City": "Evanston", "demSCHOOLlow": 50.3, "ISAT13": 71.7, "PSAE13": " ", "ACT13": " ", "LATITUDE": 42.048073, "LONGITUDE": -87.718055 }, "geometry": { "type": "Point", "coordinates": [ -87.718055, 42.048073 ] } },
{ "type": "Feature", "properties": { "RCDTS": "100680220262003", "School": "North Elem School", "City": "Nokomis", "demSCHOOLlow": 50.3, "ISAT13": 50.0, "PSAE13": " ", "ACT13": " ", "LATITUDE": 39.304265, "LONGITUDE": -89.288746 }, "geometry": { "type": "Point", "coordinates": [ -89.288746, 39.304265 ] } },
{ "type": "Feature", "properties": { "RCDTS": "170640870252012", "School": "Stevenson Elem School", "City": "Bloomington", "demSCHOOLlow": 50.3, "ISAT13": 74.2, "PSAE13": " ", "ACT13": " ", "LATITUDE": 40.493284, "LONGITUDE": -88.946358 }, "geometry": { "type": "Point", "coordinates": [ -88.946358, 40.493284 ] } },
{ "type": "Feature", "properties": { "RCDTS": "200830030260001", "School": "Harrisburg High School", "City": "Harrisburg", "demSCHOOLlow": 50.3, "ISAT13": " ", "PSAE13": 45.7, "ACT13": 19.5, "LATITUDE": 37.728506, "LONGITUDE": -88.545787 }, "geometry": { "type": "Point", "coordinates": [ -88.545787, 37.728506 ] } },
{ "type": "Feature", "properties": { "RCDTS": "440632000262006", "School": "Westwood Elem School", "City": "Woodstock", "demSCHOOLlow": 50.3, "ISAT13": 53.2, "PSAE13": " ", "ACT13": " ", "LATITUDE": 42.302345, "LONGITUDE": -88.475139 }, "geometry": { "type": "Point", "coordinates": [ -88.475139, 42.302345 ] } },
{ "type": "Feature", "properties": { "RCDTS": "460860010262002", "School": "Winchester Elem School", "City": "Winchester", "demSCHOOLlow": 50.3, "ISAT13": 57.8, "PSAE13": " ", "ACT13": " ", "LATITUDE": 39.625322, "LONGITUDE": -90.460493 }, "geometry": { "type": "Point", "coordinates": [ -90.460493, 39.625322 ] } },
{ "type": "Feature", "properties": { "RCDTS": "11012004C260001", "School": "Casey-Westfield High School", "City": "Casey", "demSCHOOLlow": 50.3, "ISAT13": " ", "PSAE13": 47.5, "ACT13": 20.9, "LATITUDE": 39.304522, "LONGITUDE": -87.989452 }, "geometry": { "type": "Point", "coordinates": [ -87.989452, 39.304522 ] } },
{ "type": "Feature", "properties": { "RCDTS": "170534290042004", "School": "Lincoln Elementary School", "City": "Pontiac", "demSCHOOLlow": 50.4, "ISAT13": 64.0, "PSAE13": " ", "ACT13": " ", "LATITUDE": 40.874488, "LONGITUDE": -88.628567 }, "geometry": { "type": "Point", "coordinates": [ -88.628567, 40.874488 ] } },
{ "type": "Feature", "properties": { "RCDTS": "410570110260001", "School": "Alton High School", "City": "Alton", "demSCHOOLlow": 50.4, "ISAT13": " ", "PSAE13": 42.8, "ACT13": 18.3, "LATITUDE": 38.936416, "LONGITUDE": -90.159775 }, "geometry": { "type": "Point", "coordinates": [ -90.159775, 38.936416 ] } },
{ "type": "Feature", "properties": { "RCDTS": "04101205025203C", "School": "CICS Rockford Patriots", "City": "Rockford", "demSCHOOLlow": 50.4, "ISAT13": 18.4, "PSAE13": " ", "ACT13": " ", "LATITUDE": 42.269809491, "LONGITUDE": -89.073550838 }, "geometry": { "type": "Point", "coordinates": [ -89.073550838, 42.269809491 ] } },
{ "type": "Feature", "properties": { "RCDTS": "17053006J262005", "School": "Tri Point Elementary School", "City": "Kempton", "demSCHOOLlow": 50.4, "ISAT13": 43.5, "PSAE13": " ", "ACT13": " ", "LATITUDE": 40.75331, "LONGITUDE": -88.187992 }, "geometry": { "type": "Point", "coordinates": [ -88.187992, 40.75331 ] } },
{ "type": "Feature", "properties": { "RCDTS": "170200150262004", "School": "Lincoln Elem School", "City": "Clinton", "demSCHOOLlow": 50.5, "ISAT13": 66.3, "PSAE13": " ", "ACT13": " ", "LATITUDE": 40.149814, "LONGITUDE": -88.962794 }, "geometry": { "type": "Point", "coordinates": [ -88.962794, 40.149814 ] } },
{ "type": "Feature", "properties": { "RCDTS": "190220440022013", "School": "Madison Elementary School", "City": "Lombard", "demSCHOOLlow": 50.5, "ISAT13": 63.2, "PSAE13": " ", "ACT13": " ", "LATITUDE": 41.874854, "LONGITUDE": -88.020852 }, "geometry": { "type": "Point", "coordinates": [ -88.020852, 41.874854 ] } },
{ "type": "Feature", "properties": { "RCDTS": "400310100262003", "School": "Greenfield Elem School", "City": "Greenfield", "demSCHOOLlow": 50.5, "ISAT13": 63.0, "PSAE13": " ", "ACT13": " ", "LATITUDE": 39.348517, "LONGITUDE": -90.213981 }, "geometry": { "type": "Point", "coordinates": [ -90.213981, 39.348517 ] } },
{ "type": "Feature", "properties": { "RCDTS": "120510100260001", "School": "Red Hill Jr\/Sr High School", "City": "Bridgeport", "demSCHOOLlow": 50.6, "ISAT13": 56.1, "PSAE13": 75.9, "ACT13": 19.6, "LATITUDE": 38.712018404, "LONGITUDE": -87.757163268 }, "geometry": { "type": "Point", "coordinates": [ -87.757163268, 38.712018404 ] } },
{ "type": "Feature", "properties": { "RCDTS": "130581330022001", "School": "Central City Elem School", "City": "Centralia", "demSCHOOLlow": 50.6, "ISAT13": 64.6, "PSAE13": " ", "ACT13": " ", "LATITUDE": 38.547557, "LONGITUDE": -89.128299 }, "geometry": { "type": "Point", "coordinates": [ -89.128299, 38.547557 ] } },
{ "type": "Feature", "properties": { "RCDTS": "160194280262011", "School": "Gwendolyn Brooks Elem Sch", "City": "Dekalb", "demSCHOOLlow": 50.6, "ISAT13": 61.1, "PSAE13": " ", "ACT13": " ", "LATITUDE": 41.965851, "LONGITUDE": -88.751952 }, "geometry": { "type": "Point", "coordinates": [ -88.751952, 41.965851 ] } },
{ "type": "Feature", "properties": { "RCDTS": "340491260170002", "School": "New Tech High - Zion-Benton East", "City": "Zion", "demSCHOOLlow": 50.6, "ISAT13": " ", "PSAE13": 52.4, "ACT13": 19.1, "LATITUDE": 42.454037, "LONGITUDE": -87.832099 }, "geometry": { "type": "Point", "coordinates": [ -87.832099, 42.454037 ] } },
{ "type": "Feature", "properties": { "RCDTS": "11012003C262005", "School": "Martinsville Elem School", "City": "Martinsville", "demSCHOOLlow": 50.6, "ISAT13": 57.4, "PSAE13": " ", "ACT13": " ", "LATITUDE": 39.338903, "LONGITUDE": -87.881367 }, "geometry": { "type": "Point", "coordinates": [ -87.881367, 39.338903 ] } },
{ "type": "Feature", "properties": { "RCDTS": "350501250022002", "School": "Lincoln Elem School", "City": "Oglesby", "demSCHOOLlow": 50.7, "ISAT13": 40.1, "PSAE13": " ", "ACT13": " ", "LATITUDE": 41.305278, "LONGITUDE": -89.070479 }, "geometry": { "type": "Point", "coordinates": [ -89.070479, 41.305278 ] } },
{ "type": "Feature", "properties": { "RCDTS": "490810410252016", "School": "Ridgewood Elem School", "City": "Rock Island", "demSCHOOLlow": 50.7, "ISAT13": 45.9, "PSAE13": " ", "ACT13": " ", "LATITUDE": 41.424418, "LONGITUDE": -90.585991 }, "geometry": { "type": "Point", "coordinates": [ -90.585991, 41.424418 ] } },
{ "type": "Feature", "properties": { "RCDTS": "100680030262003", "School": "Beckemeyer Elem School", "City": "Hillsboro", "demSCHOOLlow": 50.8, "ISAT13": 59.9, "PSAE13": " ", "ACT13": " ", "LATITUDE": 39.151438, "LONGITUDE": -89.501323 }, "geometry": { "type": "Point", "coordinates": [ -89.501323, 39.151438 ] } },
{ "type": "Feature", "properties": { "RCDTS": "120400010262002", "School": "Newton Elem School", "City": "Newton", "demSCHOOLlow": 50.8, "ISAT13": 66.1, "PSAE13": " ", "ACT13": " ", "LATITUDE": 38.986359, "LONGITUDE": -88.161026 }, "geometry": { "type": "Point", "coordinates": [ -88.161026, 38.986359 ] } },
{ "type": "Feature", "properties": { "RCDTS": "220850050262002", "School": "Webster Elem School", "City": "Rushville", "demSCHOOLlow": 50.8, "ISAT13": 61.1, "PSAE13": " ", "ACT13": " ", "LATITUDE": 40.122927, "LONGITUDE": -90.56508 }, "geometry": { "type": "Point", "coordinates": [ -90.56508, 40.122927 ] } },
{ "type": "Feature", "properties": { "RCDTS": "400070420260001", "School": "Brussels High School", "City": "Brussels", "demSCHOOLlow": 50.8, "ISAT13": 45.2, "PSAE13": 62.5, "ACT13": 21.4, "LATITUDE": 38.947464, "LONGITUDE": -90.587833 }, "geometry": { "type": "Point", "coordinates": [ -90.587833, 38.947464 ] } },
{ "type": "Feature", "properties": { "RCDTS": "431020060262003", "School": "Fieldcrest Middle Sch\/Elem - East", "City": "Wenona", "demSCHOOLlow": 50.8, "ISAT13": 58.9, "PSAE13": " ", "ACT13": " ", "LATITUDE": 41.057112, "LONGITUDE": -89.050477 }, "geometry": { "type": "Point", "coordinates": [ -89.050477, 41.057112 ] } },
{ "type": "Feature", "properties": { "RCDTS": "450791340042001", "School": "Prairie Du Rocher Elem School", "City": "Prairie Du Rocher", "demSCHOOLlow": 50.8, "ISAT13": 50.9, "PSAE13": " ", "ACT13": " ", "LATITUDE": 38.079614, "LONGITUDE": -90.094466 }, "geometry": { "type": "Point", "coordinates": [ -90.094466, 38.079614 ] } },
{ "type": "Feature", "properties": { "RCDTS": "390740050262001", "School": "Bement Elementary School", "City": "Bement", "demSCHOOLlow": 50.9, "ISAT13": 39.7, "PSAE13": " ", "ACT13": " ", "LATITUDE": 39.921943, "LONGITUDE": -88.568628 }, "geometry": { "type": "Point", "coordinates": [ -88.568628, 39.921943 ] } },
{ "type": "Feature", "properties": { "RCDTS": "170534290041001", "School": "Pontiac Jr High School", "City": "Pontiac", "demSCHOOLlow": 51.0, "ISAT13": 60.7, "PSAE13": " ", "ACT13": " ", "LATITUDE": 40.882956, "LONGITUDE": -88.617563 }, "geometry": { "type": "Point", "coordinates": [ -88.617563, 40.882956 ] } },
{ "type": "Feature", "properties": { "RCDTS": "170640050262013", "School": "Parkside Elementary School", "City": "Normal", "demSCHOOLlow": 51.0, "ISAT13": 63.3, "PSAE13": " ", "ACT13": " ", "LATITUDE": 40.509737, "LONGITUDE": -89.025506 }, "geometry": { "type": "Point", "coordinates": [ -89.025506, 40.509737 ] } },
{ "type": "Feature", "properties": { "RCDTS": "210280910042001", "School": "Akin Comm Cons Elem School", "City": "Akin", "demSCHOOLlow": 51.0, "ISAT13": 35.7, "PSAE13": " ", "ACT13": " ", "LATITUDE": 37.987086, "LONGITUDE": -88.751027 }, "geometry": { "type": "Point", "coordinates": [ -88.751027, 37.987086 ] } },
{ "type": "Feature", "properties": { "RCDTS": "240473080262005", "School": "Long Beach Elem School", "City": "Montgomery", "demSCHOOLlow": 51.0, "ISAT13": 61.0, "PSAE13": " ", "ACT13": " ", "LATITUDE": 41.711916, "LONGITUDE": -88.32875 }, "geometry": { "type": "Point", "coordinates": [ -88.32875, 41.711916 ] } },
{ "type": "Feature", "properties": { "RCDTS": "260621030262002", "School": "West Prairie South Elementary", "City": "Colchester", "demSCHOOLlow": 51.0, "ISAT13": 52.8, "PSAE13": " ", "ACT13": " ", "LATITUDE": 40.423584, "LONGITUDE": -90.792041 }, "geometry": { "type": "Point", "coordinates": [ -90.792041, 40.423584 ] } },
{ "type": "Feature", "properties": { "RCDTS": "11087003A262001", "School": "Herrick Elementary School", "City": "Herrick", "demSCHOOLlow": 51.0, "ISAT13": 57.9, "PSAE13": " ", "ACT13": " ", "LATITUDE": 39.221992, "LONGITUDE": -88.984756 }, "geometry": { "type": "Point", "coordinates": [ -88.984756, 39.221992 ] } },
{ "type": "Feature", "properties": { "RCDTS": "160194270262006", "School": "West Elem School", "City": "Sycamore", "demSCHOOLlow": 51.1, "ISAT13": 69.4, "PSAE13": " ", "ACT13": " ", "LATITUDE": 41.988096, "LONGITUDE": -88.698125 }, "geometry": { "type": "Point", "coordinates": [ -88.698125, 41.988096 ] } },
{ "type": "Feature", "properties": { "RCDTS": "320380090260001", "School": "Watseka Comm High School", "City": "Watseka", "demSCHOOLlow": 51.1, "ISAT13": " ", "PSAE13": 47.2, "ACT13": 19.4, "LATITUDE": 40.77002, "LONGITUDE": -87.729134 }, "geometry": { "type": "Point", "coordinates": [ -87.729134, 40.77002 ] } },
{ "type": "Feature", "properties": { "RCDTS": "500821100041006", "School": "Grant Middle School", "City": "Fairview Heights", "demSCHOOLlow": 51.1, "ISAT13": 49.7, "PSAE13": " ", "ACT13": " ", "LATITUDE": 38.5914, "LONGITUDE": -90.012026 }, "geometry": { "type": "Point", "coordinates": [ -90.012026, 38.5914 ] } },
{ "type": "Feature", "properties": { "RCDTS": "110213010262002", "School": "North Ward Elementary School", "City": "Tuscola", "demSCHOOLlow": 51.2, "ISAT13": 67.4, "PSAE13": " ", "ACT13": " ", "LATITUDE": 39.802954, "LONGITUDE": -88.273522 }, "geometry": { "type": "Point", "coordinates": [ -88.273522, 39.802954 ] } },
{ "type": "Feature", "properties": { "RCDTS": "150162990252119", "School": "Canty Elem School", "City": "Chicago", "demSCHOOLlow": 51.2, "ISAT13": 77.7, "PSAE13": " ", "ACT13": " ", "LATITUDE": 41.947486, "LONGITUDE": -87.829157 }, "geometry": { "type": "Point", "coordinates": [ -87.829157, 41.947486 ] } },
{ "type": "Feature", "properties": { "RCDTS": "200961120042002", "School": "North Side Elem School", "City": "Fairfield", "demSCHOOLlow": 51.2, "ISAT13": 48.5, "PSAE13": " ", "ACT13": " ", "LATITUDE": 38.38677, "LONGITUDE": -88.359759 }, "geometry": { "type": "Point", "coordinates": [ -88.359759, 38.38677 ] } },
{ "type": "Feature", "properties": { "RCDTS": "300391860262010", "School": "Gen John A Logan Attendance Cntr", "City": "Murphysboro", "demSCHOOLlow": 51.2, "ISAT13": 56.0, "PSAE13": " ", "ACT13": " ", "LATITUDE": 37.769449, "LONGITUDE": -89.296994 }, "geometry": { "type": "Point", "coordinates": [ -89.296994, 37.769449 ] } },
{ "type": "Feature", "properties": { "RCDTS": "010010030262008", "School": "Central 3-4 Middle School", "City": "Golden", "demSCHOOLlow": 51.3, "ISAT13": 45.4, "PSAE13": " ", "ACT13": " ", "LATITUDE": 40.19445, "LONGITUDE": -91.036815 }, "geometry": { "type": "Point", "coordinates": [ -91.036815, 40.19445 ] } },
{ "type": "Feature", "properties": { "RCDTS": "220290030260001", "School": "Cuba Sr High School", "City": "Cuba", "demSCHOOLlow": 51.3, "ISAT13": " ", "PSAE13": 45.2, "ACT13": 18.6, "LATITUDE": 40.48783, "LONGITUDE": -90.190255 }, "geometry": { "type": "Point", "coordinates": [ -90.190255, 40.48783 ] } },
{ "type": "Feature", "properties": { "RCDTS": "310450460222008", "School": "Timber Trails Elementary School", "City": "Hoffman Estates", "demSCHOOLlow": 51.3, "ISAT13": 62.3, "PSAE13": " ", "ACT13": " ", "LATITUDE": 42.056999, "LONGITUDE": -88.21221 }, "geometry": { "type": "Point", "coordinates": [ -88.21221, 42.056999 ] } },
{ "type": "Feature", "properties": { "RCDTS": "070162180160004", "School": "H L Richards High Sch(Campus)", "City": "Oak Lawn", "demSCHOOLlow": 51.4, "ISAT13": " ", "PSAE13": 42.6, "ACT13": 19.2, "LATITUDE": 41.699694, "LONGITUDE": -87.759481 }, "geometry": { "type": "Point", "coordinates": [ -87.759481, 41.699694 ] } },
{ "type": "Feature", "properties": { "RCDTS": "170640050262002", "School": "Sugar Creek Elem School", "City": "Normal", "demSCHOOLlow": 51.4, "ISAT13": 72.9, "PSAE13": " ", "ACT13": " ", "LATITUDE": 40.511912, "LONGITUDE": -88.960643 }, "geometry": { "type": "Point", "coordinates": [ -88.960643, 40.511912 ] } },
{ "type": "Feature", "properties": { "RCDTS": "200830010261001", "School": "Galatia Jr High", "City": "Galatia", "demSCHOOLlow": 51.4, "ISAT13": 47.9, "PSAE13": " ", "ACT13": " ", "LATITUDE": 37.841955, "LONGITUDE": -88.605342 }, "geometry": { "type": "Point", "coordinates": [ -88.605342, 37.841955 ] } },
{ "type": "Feature", "properties": { "RCDTS": "320460530022002", "School": "Shabbona Elem School", "City": "Bourbonnais", "demSCHOOLlow": 51.4, "ISAT13": 54.3, "PSAE13": " ", "ACT13": " ", "LATITUDE": 41.160271, "LONGITUDE": -87.875414 }, "geometry": { "type": "Point", "coordinates": [ -87.875414, 41.160271 ] } },
{ "type": "Feature", "properties": { "RCDTS": "150162990252366", "School": "Murray Language Academy Elem Schl", "City": "Chicago", "demSCHOOLlow": 51.5, "ISAT13": 69.3, "PSAE13": " ", "ACT13": " ", "LATITUDE": 41.798505, "LONGITUDE": -87.59341 }, "geometry": { "type": "Point", "coordinates": [ -87.59341, 41.798505 ] } },
{ "type": "Feature", "properties": { "RCDTS": "300733000262003", "School": "Duquoin  Elementary School", "City": "Du Quoin", "demSCHOOLlow": 51.5, "ISAT13": 57.4, "PSAE13": " ", "ACT13": " ", "LATITUDE": 38.001948, "LONGITUDE": -89.220472 }, "geometry": { "type": "Point", "coordinates": [ -89.220472, 38.001948 ] } },
{ "type": "Feature", "properties": { "RCDTS": "400560340261001", "School": "North Mac Middle School", "City": "Girard", "demSCHOOLlow": 51.5, "ISAT13": 60.9, "PSAE13": " ", "ACT13": " ", "LATITUDE": 39.442206984, "LONGITUDE": -89.780671804 }, "geometry": { "type": "Point", "coordinates": [ -89.780671804, 39.442206984 ] } },
{ "type": "Feature", "properties": { "RCDTS": "540920120261001", "School": "Jamaica Jr High School", "City": "Sidell", "demSCHOOLlow": 51.5, "ISAT13": 56.6, "PSAE13": " ", "ACT13": " ", "LATITUDE": 39.968069, "LONGITUDE": -87.823646 }, "geometry": { "type": "Point", "coordinates": [ -87.823646, 39.968069 ] } },
{ "type": "Feature", "properties": { "RCDTS": "110230950250002", "School": "Paris Cooperative High School 95", "City": "Paris", "demSCHOOLlow": 51.6, "ISAT13": " ", "PSAE13": 56.1, "ACT13": 18.9, "LATITUDE": 39.60901, "LONGITUDE": -87.69491 }, "geometry": { "type": "Point", "coordinates": [ -87.69491, 39.60901 ] } },
{ "type": "Feature", "properties": { "RCDTS": "160194280261010", "School": "Huntley Middle School", "City": "Dekalb", "demSCHOOLlow": 51.6, "ISAT13": 51.1, "PSAE13": " ", "ACT13": " ", "LATITUDE": 41.921017, "LONGITUDE": -88.74865 }, "geometry": { "type": "Point", "coordinates": [ -88.74865, 41.921017 ] } },
{ "type": "Feature", "properties": { "RCDTS": "310450460222038", "School": "Willard Elem School", "City": "South Elgin", "demSCHOOLlow": 51.6, "ISAT13": 62.3, "PSAE13": " ", "ACT13": " ", "LATITUDE": 41.995005, "LONGITUDE": -88.299856 }, "geometry": { "type": "Point", "coordinates": [ -88.299856, 41.995005 ] } },
{ "type": "Feature", "properties": { "RCDTS": "030250200262003", "School": "Beecher City Grade School", "City": "Beecher City", "demSCHOOLlow": 51.7, "ISAT13": 65.1, "PSAE13": " ", "ACT13": " ", "LATITUDE": 39.172595, "LONGITUDE": -88.800543 }, "geometry": { "type": "Point", "coordinates": [ -88.800543, 39.172595 ] } },
{ "type": "Feature", "properties": { "RCDTS": "080083140260001", "School": "West Carroll High School", "City": "Savanna", "demSCHOOLlow": 51.7, "ISAT13": " ", "PSAE13": 42.2, "ACT13": 18.7, "LATITUDE": 42.095773, "LONGITUDE": -90.133342 }, "geometry": { "type": "Point", "coordinates": [ -90.133342, 42.095773 ] } },
{ "type": "Feature", "properties": { "RCDTS": "170640190262002", "School": "Ridgeview Elementary School", "City": "Colfax", "demSCHOOLlow": 51.7, "ISAT13": 66.8, "PSAE13": " ", "ACT13": " ", "LATITUDE": 40.562856, "LONGITUDE": -88.612879 }, "geometry": { "type": "Point", "coordinates": [ -88.612879, 40.562856 ] } },
{ "type": "Feature", "properties": { "RCDTS": "110703000262001", "School": "Sullivan Elem School", "City": "Sullivan", "demSCHOOLlow": 51.8, "ISAT13": 69.8, "PSAE13": " ", "ACT13": " ", "LATITUDE": 39.606788, "LONGITUDE": -88.611251 }, "geometry": { "type": "Point", "coordinates": [ -88.611251, 39.606788 ] } },
{ "type": "Feature", "properties": { "RCDTS": "250411140042001", "School": "Bluford Elem School", "City": "Bluford", "demSCHOOLlow": 51.8, "ISAT13": 67.9, "PSAE13": " ", "ACT13": " ", "LATITUDE": 38.324657, "LONGITUDE": -88.742949 }, "geometry": { "type": "Point", "coordinates": [ -88.742949, 38.324657 ] } },
{ "type": "Feature", "properties": { "RCDTS": "440630360022001", "School": "Harrison Elem School", "City": "Wonder Lake", "demSCHOOLlow": 51.8, "ISAT13": 58.1, "PSAE13": " ", "ACT13": " ", "LATITUDE": 42.385647, "LONGITUDE": -88.329818 }, "geometry": { "type": "Point", "coordinates": [ -88.329818, 42.385647 ] } },
{ "type": "Feature", "properties": { "RCDTS": "460090640262001", "School": "Virginia Elem School", "City": "Virginia", "demSCHOOLlow": 51.8, "ISAT13": 67.9, "PSAE13": " ", "ACT13": " ", "LATITUDE": 39.946855, "LONGITUDE": -90.216769 }, "geometry": { "type": "Point", "coordinates": [ -90.216769, 39.946855 ] } },
{ "type": "Feature", "properties": { "RCDTS": "510841860252040", "School": "Wilcox Elem School", "City": "Springfield", "demSCHOOLlow": 51.8, "ISAT13": 52.4, "PSAE13": " ", "ACT13": " ", "LATITUDE": 39.828397, "LONGITUDE": -89.615136 }, "geometry": { "type": "Point", "coordinates": [ -89.615136, 39.828397 ] } },
{ "type": "Feature", "properties": { "RCDTS": "050160150042005", "School": "Kimball Hill Elem School", "City": "Rolling Meadows", "demSCHOOLlow": 51.9, "ISAT13": 58.4, "PSAE13": " ", "ACT13": " ", "LATITUDE": 42.080312, "LONGITUDE": -88.014992 }, "geometry": { "type": "Point", "coordinates": [ -88.014992, 42.080312 ] } },
{ "type": "Feature", "properties": { "RCDTS": "400560080262003", "School": "Wolf Ridge Elementary", "City": "Bunker Hill", "demSCHOOLlow": 51.9, "ISAT13": 46.8, "PSAE13": " ", "ACT13": " ", "LATITUDE": 39.03776, "LONGITUDE": -89.954276 }, "geometry": { "type": "Point", "coordinates": [ -89.954276, 39.03776 ] } },
{ "type": "Feature", "properties": { "RCDTS": "440631650031001", "School": "Marengo Comm Middle School", "City": "Marengo", "demSCHOOLlow": 51.9, "ISAT13": 58.9, "PSAE13": " ", "ACT13": " ", "LATITUDE": 42.244536, "LONGITUDE": -88.597768 }, "geometry": { "type": "Point", "coordinates": [ -88.597768, 42.244536 ] } },
{ "type": "Feature", "properties": { "RCDTS": "040041000262009", "School": "Meehan Elementary School", "City": "Belvidere", "demSCHOOLlow": 52.0, "ISAT13": 60.1, "PSAE13": " ", "ACT13": " ", "LATITUDE": 42.247886, "LONGITUDE": -88.824573 }, "geometry": { "type": "Point", "coordinates": [ -88.824573, 42.247886 ] } },
{ "type": "Feature", "properties": { "RCDTS": "070161300022012", "School": "Nathan Hale Primary School", "City": "Crestwood", "demSCHOOLlow": 52.0, "ISAT13": 40.6, "PSAE13": " ", "ACT13": " ", "LATITUDE": 41.647019, "LONGITUDE": -87.750495 }, "geometry": { "type": "Point", "coordinates": [ -87.750495, 41.647019 ] } },
{ "type": "Feature", "properties": { "RCDTS": "330482050262018", "School": "Gale School", "City": "Galesburg", "demSCHOOLlow": 52.0, "ISAT13": 68.0, "PSAE13": " ", "ACT13": " ", "LATITUDE": 40.966033, "LONGITUDE": -90.390661 }, "geometry": { "type": "Point", "coordinates": [ -90.390661, 40.966033 ] } },
{ "type": "Feature", "properties": { "RCDTS": "330482170260001", "School": "Abingdon High School", "City": "Abingdon", "demSCHOOLlow": 52.0, "ISAT13": " ", "PSAE13": 37.5, "ACT13": 18.4, "LATITUDE": 40.801514, "LONGITUDE": -90.405416 }, "geometry": { "type": "Point", "coordinates": [ -90.405416, 40.801514 ] } },
{ "type": "Feature", "properties": { "RCDTS": "350500020262002", "School": "Harding Grade School", "City": "Earlville", "demSCHOOLlow": 52.0, "ISAT13": 65.0, "PSAE13": " ", "ACT13": " ", "LATITUDE": 41.515073, "LONGITUDE": -88.847287 }, "geometry": { "type": "Point", "coordinates": [ -88.847287, 41.515073 ] } },
{ "type": "Feature", "properties": { "RCDTS": "450791400260001", "School": "Sparta High School", "City": "Sparta", "demSCHOOLlow": 52.0, "ISAT13": " ", "PSAE13": 36.7, "ACT13": 18.7, "LATITUDE": 38.131514, "LONGITUDE": -89.705418 }, "geometry": { "type": "Point", "coordinates": [ -89.705418, 38.131514 ] } },
{ "type": "Feature", "properties": { "RCDTS": "050160680022004", "School": "Jane Stenson School", "City": "Skokie", "demSCHOOLlow": 52.1, "ISAT13": 61.7, "PSAE13": " ", "ACT13": " ", "LATITUDE": 42.048071, "LONGITUDE": -87.759068 }, "geometry": { "type": "Point", "coordinates": [ -87.759068, 42.048071 ] } },
{ "type": "Feature", "properties": { "RCDTS": "400560020262005", "School": "Northwestern Elem School", "City": "Palmyra", "demSCHOOLlow": 52.1, "ISAT13": 50.0, "PSAE13": " ", "ACT13": " ", "LATITUDE": 39.424467, "LONGITUDE": -89.995912 }, "geometry": { "type": "Point", "coordinates": [ -89.995912, 39.424467 ] } },
{ "type": "Feature", "properties": { "RCDTS": "240470880260001", "School": "Plano High School", "City": "Plano", "demSCHOOLlow": 52.2, "ISAT13": " ", "PSAE13": 44.0, "ACT13": 18.8, "LATITUDE": 41.665781, "LONGITUDE": -88.550241 }, "geometry": { "type": "Point", "coordinates": [ -88.550241, 41.665781 ] } },
{ "type": "Feature", "properties": { "RCDTS": "300391650160001", "School": "Carbondale Comm H S", "City": "Carbondale", "demSCHOOLlow": 52.2, "ISAT13": " ", "PSAE13": 57.1, "ACT13": 20.6, "LATITUDE": 37.726841, "LONGITUDE": -89.188846 }, "geometry": { "type": "Point", "coordinates": [ -89.188846, 37.726841 ] } },
{ "type": "Feature", "properties": { "RCDTS": "540920120262002", "School": "Jamaica Elementary School", "City": "Sidell", "demSCHOOLlow": 52.2, "ISAT13": 62.0, "PSAE13": " ", "ACT13": " ", "LATITUDE": 39.968069, "LONGITUDE": -87.823646 }, "geometry": { "type": "Point", "coordinates": [ -87.823646, 39.968069 ] } },
{ "type": "Feature", "properties": { "RCDTS": "070161230022003", "School": "J Covington Elem School", "City": "Oak Lawn", "demSCHOOLlow": 52.3, "ISAT13": 58.0, "PSAE13": " ", "ACT13": " ", "LATITUDE": 41.72578, "LONGITUDE": -87.752182 }, "geometry": { "type": "Point", "coordinates": [ -87.752182, 41.72578 ] } },
{ "type": "Feature", "properties": { "RCDTS": "150162990250851", "School": "Chicago HS for the Arts", "City": "Chicago", "demSCHOOLlow": 52.3, "ISAT13": " ", "PSAE13": 54.5, "ACT13": 20.1, "LATITUDE": 41.831171767, "LONGITUDE": -87.613417864 }, "geometry": { "type": "Point", "coordinates": [ -87.613417864, 41.831171767 ] } },
{ "type": "Feature", "properties": { "RCDTS": "200960140042001", "School": "Geff Elem School", "City": "Geff", "demSCHOOLlow": 52.3, "ISAT13": 53.5, "PSAE13": " ", "ACT13": " ", "LATITUDE": 38.44164, "LONGITUDE": -88.402899 }, "geometry": { "type": "Point", "coordinates": [ -88.402899, 38.44164 ] } },
{ "type": "Feature", "properties": { "RCDTS": "530900860022003", "School": "Glendale Elem School", "City": "East Peoria", "demSCHOOLlow": 52.3, "ISAT13": 56.8, "PSAE13": " ", "ACT13": " ", "LATITUDE": 40.661869, "LONGITUDE": -89.55223 }, "geometry": { "type": "Point", "coordinates": [ -89.55223, 40.661869 ] } },
{ "type": "Feature", "properties": { "RCDTS": "210281150042001", "School": "Ewing-Northern Elem School", "City": "Ewing", "demSCHOOLlow": 52.4, "ISAT13": 65.8, "PSAE13": " ", "ACT13": " ", "LATITUDE": 38.089336, "LONGITUDE": -88.852891 }, "geometry": { "type": "Point", "coordinates": [ -88.852891, 38.089336 ] } },
{ "type": "Feature", "properties": { "RCDTS": "310450460222019", "School": "Hanover Countryside Elem School", "City": "Streamwood", "demSCHOOLlow": 52.4, "ISAT13": 60.7, "PSAE13": " ", "ACT13": " ", "LATITUDE": 42.030888, "LONGITUDE": -88.180129 }, "geometry": { "type": "Point", "coordinates": [ -88.180129, 42.030888 ] } },
{ "type": "Feature", "properties": { "RCDTS": "500820400260001", "School": "Marissa Jr & Sr High School", "City": "Marissa", "demSCHOOLlow": 52.4, "ISAT13": 51.1, "PSAE13": 35.2, "ACT13": 18.9, "LATITUDE": 38.257736, "LONGITUDE": -89.754206 }, "geometry": { "type": "Point", "coordinates": [ -89.754206, 38.257736 ] } },
{ "type": "Feature", "properties": { "RCDTS": "500821810022001", "School": "Signal Hill Elem School", "City": "Belleville", "demSCHOOLlow": 52.4, "ISAT13": 61.2, "PSAE13": " ", "ACT13": " ", "LATITUDE": 38.574925, "LONGITUDE": -90.066048 }, "geometry": { "type": "Point", "coordinates": [ -90.066048, 38.574925 ] } },
{ "type": "Feature", "properties": { "RCDTS": "250412010170001", "School": "Mount Vernon High School", "City": "Mount Vernon", "demSCHOOLlow": 52.5, "ISAT13": " ", "PSAE13": 46.3, "ACT13": 19.0, "LATITUDE": 38.315808, "LONGITUDE": -88.899121 }, "geometry": { "type": "Point", "coordinates": [ -88.899121, 38.315808 ] } },
{ "type": "Feature", "properties": { "RCDTS": "310451290222005", "School": "Freeman Elem School", "City": "Aurora", "demSCHOOLlow": 52.5, "ISAT13": 55.4, "PSAE13": " ", "ACT13": " ", "LATITUDE": 41.759077, "LONGITUDE": -88.349637 }, "geometry": { "type": "Point", "coordinates": [ -88.349637, 41.759077 ] } },
{ "type": "Feature", "properties": { "RCDTS": "350500090262001", "School": "Earlville Elem School", "City": "Earlville", "demSCHOOLlow": 52.5, "ISAT13": 57.7, "PSAE13": " ", "ACT13": " ", "LATITUDE": 41.584485, "LONGITUDE": -88.924524 }, "geometry": { "type": "Point", "coordinates": [ -88.924524, 41.584485 ] } },
{ "type": "Feature", "properties": { "RCDTS": "380540270021001", "School": "Lincoln Jr High School", "City": "Lincoln", "demSCHOOLlow": 52.5, "ISAT13": 49.3, "PSAE13": " ", "ACT13": " ", "LATITUDE": 40.149896, "LONGITUDE": -89.36712 }, "geometry": { "type": "Point", "coordinates": [ -89.36712, 40.149896 ] } },
{ "type": "Feature", "properties": { "RCDTS": "400560090262004", "School": "Medora Elem School", "City": "Medora", "demSCHOOLlow": 52.5, "ISAT13": 78.0, "PSAE13": " ", "ACT13": " ", "LATITUDE": 39.174001, "LONGITUDE": -90.144833 }, "geometry": { "type": "Point", "coordinates": [ -90.144833, 39.174001 ] } },
{ "type": "Feature", "properties": { "RCDTS": "070161080022001", "School": "Willow Springs Elem School", "City": "Willow Springs", "demSCHOOLlow": 52.6, "ISAT13": 54.0, "PSAE13": " ", "ACT13": " ", "LATITUDE": 41.738629, "LONGITUDE": -87.865115 }, "geometry": { "type": "Point", "coordinates": [ -87.865115, 41.738629 ] } },
{ "type": "Feature", "properties": { "RCDTS": "170640870250001", "School": "Bloomington High School", "City": "Bloomington", "demSCHOOLlow": 52.6, "ISAT13": " ", "PSAE13": 50.9, "ACT13": 18.9, "LATITUDE": 40.485033, "LONGITUDE": -88.973254 }, "geometry": { "type": "Point", "coordinates": [ -88.973254, 40.485033 ] } },
{ "type": "Feature", "properties": { "RCDTS": "190220930042007", "School": "Elsie C Johnson Elem Sch", "City": "Hanover Park", "demSCHOOLlow": 52.6, "ISAT13": 58.6, "PSAE13": " ", "ACT13": " ", "LATITUDE": 41.943269, "LONGITUDE": -88.142276 }, "geometry": { "type": "Point", "coordinates": [ -88.142276, 41.943269 ] } },
{ "type": "Feature", "properties": { "RCDTS": "280372300262001", "School": "Wethersfield Elem School", "City": "Kewanee", "demSCHOOLlow": 52.6, "ISAT13": 50.8, "PSAE13": " ", "ACT13": " ", "LATITUDE": 41.227523, "LONGITUDE": -89.924561 }, "geometry": { "type": "Point", "coordinates": [ -89.924561, 41.227523 ] } },
{ "type": "Feature", "properties": { "RCDTS": "400560340262002", "School": "Virden Elementary School", "City": "Virden", "demSCHOOLlow": 52.6, "ISAT13": 60.8, "PSAE13": " ", "ACT13": " ", "LATITUDE": 39.50658, "LONGITUDE": -89.768106 }, "geometry": { "type": "Point", "coordinates": [ -89.768106, 39.50658 ] } },
{ "type": "Feature", "properties": { "RCDTS": "490810340021001", "School": "Northeast Jr High School", "City": "East Moline", "demSCHOOLlow": 52.6, "ISAT13": 38.0, "PSAE13": " ", "ACT13": " ", "LATITUDE": 41.53130067, "LONGITUDE": -90.390032843 }, "geometry": { "type": "Point", "coordinates": [ -90.390032843, 41.53130067 ] } },
{ "type": "Feature", "properties": { "RCDTS": "490810400221003", "School": "John Deere Middle School", "City": "Moline", "demSCHOOLlow": 52.6, "ISAT13": 48.7, "PSAE13": " ", "ACT13": " ", "LATITUDE": 41.491618, "LONGITUDE": -90.521465 }, "geometry": { "type": "Point", "coordinates": [ -90.521465, 41.491618 ] } },
{ "type": "Feature", "properties": { "RCDTS": "560990860052020", "School": "Taft Elementary School", "City": "Joliet", "demSCHOOLlow": 52.6, "ISAT13": 61.4, "PSAE13": " ", "ACT13": " ", "LATITUDE": 41.54417, "LONGITUDE": -88.11665 }, "geometry": { "type": "Point", "coordinates": [ -88.11665, 41.54417 ] } },
{ "type": "Feature", "properties": { "RCDTS": "56099088A021001", "School": "Richland Jr High", "City": "Crest Hill", "demSCHOOLlow": 52.6, "ISAT13": 54.3, "PSAE13": " ", "ACT13": " ", "LATITUDE": 41.566065, "LONGITUDE": -88.129318 }, "geometry": { "type": "Point", "coordinates": [ -88.129318, 41.566065 ] } },
{ "type": "Feature", "properties": { "RCDTS": "120130350262001", "School": "Xenia Grade School", "City": "Xenia", "demSCHOOLlow": 52.7, "ISAT13": 80.6, "PSAE13": " ", "ACT13": " ", "LATITUDE": 38.639506, "LONGITUDE": -88.635037 }, "geometry": { "type": "Point", "coordinates": [ -88.635037, 38.639506 ] } },
{ "type": "Feature", "properties": { "RCDTS": "150162990252967", "School": "STEM Magnet Academy ES", "City": "Chicago", "demSCHOOLlow": 52.7, "ISAT13": 82.7, "PSAE13": " ", "ACT13": " ", "LATITUDE": 41.868593248, "LONGITUDE": -87.664376057 }, "geometry": { "type": "Point", "coordinates": [ -87.664376057, 41.868593248 ] } },
{ "type": "Feature", "properties": { "RCDTS": "220290010262001", "School": "Astoria Elem School", "City": "Astoria", "demSCHOOLlow": 52.7, "ISAT13": 39.8, "PSAE13": " ", "ACT13": " ", "LATITUDE": 40.228595, "LONGITUDE": -90.352674 }, "geometry": { "type": "Point", "coordinates": [ -90.352674, 40.228595 ] } },
{ "type": "Feature", "properties": { "RCDTS": "300391760261001", "School": "Trico Jr High School", "City": "Campbell Hill", "demSCHOOLlow": 52.7, "ISAT13": 45.2, "PSAE13": " ", "ACT13": " ", "LATITUDE": 37.947606, "LONGITUDE": -89.563932 }, "geometry": { "type": "Point", "coordinates": [ -89.563932, 37.947606 ] } },
{ "type": "Feature", "properties": { "RCDTS": "440630500260001", "School": "Harvard High School", "City": "Harvard", "demSCHOOLlow": 52.7, "ISAT13": " ", "PSAE13": 34.5, "ACT13": 18.2, "LATITUDE": 42.427543, "LONGITUDE": -88.611068 }, "geometry": { "type": "Point", "coordinates": [ -88.611068, 42.427543 ] } },
{ "type": "Feature", "properties": { "RCDTS": "530901080022015", "School": "Washington Intermediate School", "City": "Pekin", "demSCHOOLlow": 52.7, "ISAT13": 56.0, "PSAE13": " ", "ACT13": " ", "LATITUDE": 40.564913, "LONGITUDE": -89.64573 }, "geometry": { "type": "Point", "coordinates": [ -89.64573, 40.564913 ] } },
{ "type": "Feature", "properties": { "RCDTS": "400560060262002", "School": "A R Graiff Elem School", "City": "Livingston", "demSCHOOLlow": 52.8, "ISAT13": 58.7, "PSAE13": " ", "ACT13": " ", "LATITUDE": 38.973049, "LONGITUDE": -89.764365 }, "geometry": { "type": "Point", "coordinates": [ -89.764365, 38.973049 ] } },
{ "type": "Feature", "properties": { "RCDTS": "410570010260001", "School": "Roxana Sr High School", "City": "Roxana", "demSCHOOLlow": 52.8, "ISAT13": " ", "PSAE13": 37.3, "ACT13": 18.0, "LATITUDE": 38.850567, "LONGITUDE": -90.075716 }, "geometry": { "type": "Point", "coordinates": [ -90.075716, 38.850567 ] } },
{ "type": "Feature", "properties": { "RCDTS": "030262010261001", "School": "Brownstown Jr High School", "City": "Brownstown", "demSCHOOLlow": 52.9, "ISAT13": 52.9, "PSAE13": " ", "ACT13": " ", "LATITUDE": 38.992289, "LONGITUDE": -88.955878 }, "geometry": { "type": "Point", "coordinates": [ -88.955878, 38.992289 ] } },
{ "type": "Feature", "properties": { "RCDTS": "050160680021002", "School": "Old Orchard Jr High School", "City": "Skokie", "demSCHOOLlow": 52.9, "ISAT13": 67.1, "PSAE13": " ", "ACT13": " ", "LATITUDE": 42.049973, "LONGITUDE": -87.742117 }, "geometry": { "type": "Point", "coordinates": [ -87.742117, 42.049973 ] } },
{ "type": "Feature", "properties": { "RCDTS": "070161600022003", "School": "Zenon J Sykuta  School", "City": "Country Club Hill", "demSCHOOLlow": 52.9, "ISAT13": 39.7, "PSAE13": " ", "ACT13": " ", "LATITUDE": 41.563035, "LONGITUDE": -87.722233 }, "geometry": { "type": "Point", "coordinates": [ -87.722233, 41.563035 ] } },
{ "type": "Feature", "properties": { "RCDTS": "110230030262002", "School": "Kansas Elem School", "City": "Kansas", "demSCHOOLlow": 52.9, "ISAT13": 46.3, "PSAE13": " ", "ACT13": " ", "LATITUDE": 39.550998, "LONGITUDE": -87.939495 }, "geometry": { "type": "Point", "coordinates": [ -87.939495, 39.550998 ] } },
{ "type": "Feature", "properties": { "RCDTS": "220290660251002", "School": "Ingersoll Middle School", "City": "Canton", "demSCHOOLlow": 52.9, "ISAT13": 56.1, "PSAE13": " ", "ACT13": " ", "LATITUDE": 40.560753, "LONGITUDE": -90.00773 }, "geometry": { "type": "Point", "coordinates": [ -90.00773, 40.560753 ] } },
{ "type": "Feature", "properties": { "RCDTS": "280061150022004", "School": "Lincoln Elem School", "City": "Princeton", "demSCHOOLlow": 52.9, "ISAT13": 65.6, "PSAE13": " ", "ACT13": " ", "LATITUDE": 41.370823, "LONGITUDE": -89.460118 }, "geometry": { "type": "Point", "coordinates": [ -89.460118, 41.370823 ] } },
{ "type": "Feature", "properties": { "RCDTS": "060164010262004", "School": "John Mills Elem School", "City": "Elmwood Park", "demSCHOOLlow": 53.0, "ISAT13": 53.4, "PSAE13": " ", "ACT13": " ", "LATITUDE": 41.931446, "LONGITUDE": -87.817797 }, "geometry": { "type": "Point", "coordinates": [ -87.817797, 41.931446 ] } },
{ "type": "Feature", "properties": { "RCDTS": "560992040170003", "School": "Joliet West High School", "City": "Joliet", "demSCHOOLlow": 53.0, "ISAT13": " ", "PSAE13": 40.8, "ACT13": 18.8, "LATITUDE": 41.52992, "LONGITUDE": -88.124988 }, "geometry": { "type": "Point", "coordinates": [ -88.124988, 41.52992 ] } },
{ "type": "Feature", "properties": { "RCDTS": "200300070262001", "School": "Gallatin Elementary School", "City": "Junction", "demSCHOOLlow": 53.1, "ISAT13": 53.0, "PSAE13": " ", "ACT13": " ", "LATITUDE": 37.730535, "LONGITUDE": -88.239489 }, "geometry": { "type": "Point", "coordinates": [ -88.239489, 37.730535 ] } },
{ "type": "Feature", "properties": { "RCDTS": "410570100262014", "School": "John A Renfro Elementary School", "City": "Collinsville", "demSCHOOLlow": 53.1, "ISAT13": 54.1, "PSAE13": " ", "ACT13": " ", "LATITUDE": 38.695988, "LONGITUDE": -89.973294 }, "geometry": { "type": "Point", "coordinates": [ -89.973294, 38.695988 ] } },
{ "type": "Feature", "properties": { "RCDTS": "050160590042016", "School": "Juliette Low Elem School", "City": "Arlington Heights", "demSCHOOLlow": 53.2, "ISAT13": 60.0, "PSAE13": " ", "ACT13": " ", "LATITUDE": 42.055584, "LONGITUDE": -87.986459 }, "geometry": { "type": "Point", "coordinates": [ -87.986459, 42.055584 ] } },
{ "type": "Feature", "properties": { "RCDTS": "050160650042004", "School": "Dawes Elementary School", "City": "Evanston", "demSCHOOLlow": 53.2, "ISAT13": 63.2, "PSAE13": " ", "ACT13": " ", "LATITUDE": 42.025015, "LONGITUDE": -87.699534 }, "geometry": { "type": "Point", "coordinates": [ -87.699534, 42.025015 ] } },
{ "type": "Feature", "properties": { "RCDTS": "200760010260001", "School": "Pope Co High School", "City": "Golconda", "demSCHOOLlow": 53.2, "ISAT13": " ", "PSAE13": 46.6, "ACT13": 18.7, "LATITUDE": 37.366006, "LONGITUDE": -88.513494 }, "geometry": { "type": "Point", "coordinates": [ -88.513494, 37.366006 ] } },
{ "type": "Feature", "properties": { "RCDTS": "280060990042002", "School": "John F Kennedy Elem School", "City": "Spring Valley", "demSCHOOLlow": 53.2, "ISAT13": 47.3, "PSAE13": " ", "ACT13": " ", "LATITUDE": 41.33152, "LONGITUDE": -89.206736 }, "geometry": { "type": "Point", "coordinates": [ -89.206736, 41.33152 ] } },
{ "type": "Feature", "properties": { "RCDTS": "020440320032003", "School": "New Simpson Hill Dist 32", "City": "Tunnel Hill", "demSCHOOLlow": 53.3, "ISAT13": 54.1, "PSAE13": " ", "ACT13": " ", "LATITUDE": 37.53368, "LONGITUDE": -88.927535 }, "geometry": { "type": "Point", "coordinates": [ -88.927535, 37.53368 ] } },
{ "type": "Feature", "properties": { "RCDTS": "200970010262002", "School": "Wells Elementary School", "City": "Grayville", "demSCHOOLlow": 53.3, "ISAT13": 54.3, "PSAE13": " ", "ACT13": " ", "LATITUDE": 38.257724, "LONGITUDE": -88.004023 }, "geometry": { "type": "Point", "coordinates": [ -88.004023, 38.257724 ] } },
{ "type": "Feature", "properties": { "RCDTS": "540920040260004", "School": "Georgetown-Ridge Farm High School", "City": "Georgetown", "demSCHOOLlow": 53.3, "ISAT13": " ", "PSAE13": 27.9, "ACT13": 17.8, "LATITUDE": 39.973267, "LONGITUDE": -87.638319 }, "geometry": { "type": "Point", "coordinates": [ -87.638319, 39.973267 ] } },
{ "type": "Feature", "properties": { "RCDTS": "100680020262005", "School": "Raymond Grade School", "City": "Raymond", "demSCHOOLlow": 53.4, "ISAT13": 52.3, "PSAE13": " ", "ACT13": " ", "LATITUDE": 39.324999, "LONGITUDE": -89.571794 }, "geometry": { "type": "Point", "coordinates": [ -89.571794, 39.324999 ] } },
{ "type": "Feature", "properties": { "RCDTS": "431020210262003", "School": "Lowpoint-Washburn Elem School", "City": "Washburn", "demSCHOOLlow": 53.4, "ISAT13": 60.1, "PSAE13": " ", "ACT13": " ", "LATITUDE": 40.924035, "LONGITUDE": -89.294915 }, "geometry": { "type": "Point", "coordinates": [ -89.294915, 40.924035 ] } },
{ "type": "Feature", "properties": { "RCDTS": "11087003A260001", "School": "Cowden-Herrick High School", "City": "Cowden", "demSCHOOLlow": 53.4, "ISAT13": " ", "PSAE13": 25.0, "ACT13": 18.4, "LATITUDE": 39.242856, "LONGITUDE": -88.862949 }, "geometry": { "type": "Point", "coordinates": [ -88.862949, 39.242856 ] } },
{ "type": "Feature", "properties": { "RCDTS": "070161260022004", "School": "Stony Creek Elem School", "City": "Alsip", "demSCHOOLlow": 53.5, "ISAT13": 52.3, "PSAE13": " ", "ACT13": " ", "LATITUDE": 41.680342, "LONGITUDE": -87.728214 }, "geometry": { "type": "Point", "coordinates": [ -87.728214, 41.680342 ] } },
{ "type": "Feature", "properties": { "RCDTS": "090100040262008", "School": "Carrie Busey Elem School", "City": "Champaign", "demSCHOOLlow": 53.5, "ISAT13": 51.0, "PSAE13": " ", "ACT13": " ", "LATITUDE": 40.057620035, "LONGITUDE": -88.2426411 }, "geometry": { "type": "Point", "coordinates": [ -88.2426411, 40.057620035 ] } },
{ "type": "Feature", "properties": { "RCDTS": "150162990252108", "School": "Burr Elem School", "City": "Chicago", "demSCHOOLlow": 53.5, "ISAT13": 56.8, "PSAE13": " ", "ACT13": " ", "LATITUDE": 41.912441, "LONGITUDE": -87.668491 }, "geometry": { "type": "Point", "coordinates": [ -87.668491, 41.912441 ] } },
{ "type": "Feature", "properties": { "RCDTS": "440630470042003", "School": "Coventry Elem School", "City": "Crystal Lake", "demSCHOOLlow": 53.5, "ISAT13": 59.8, "PSAE13": " ", "ACT13": " ", "LATITUDE": 42.217431, "LONGITUDE": -88.327919 }, "geometry": { "type": "Point", "coordinates": [ -88.327919, 42.217431 ] } },
{ "type": "Feature", "properties": { "RCDTS": "010750120261001", "School": "Western Jr High School", "City": "Kinderhook", "demSCHOOLlow": 53.6, "ISAT13": 45.7, "PSAE13": " ", "ACT13": " ", "LATITUDE": 39.703167, "LONGITUDE": -91.148013 }, "geometry": { "type": "Point", "coordinates": [ -91.148013, 39.703167 ] } },
{ "type": "Feature", "properties": { "RCDTS": "110213050262004", "School": "Lovington Grade School", "City": "Lovington", "demSCHOOLlow": 53.6, "ISAT13": 52.2, "PSAE13": " ", "ACT13": " ", "LATITUDE": 39.713790512, "LONGITUDE": -88.627820403 }, "geometry": { "type": "Point", "coordinates": [ -88.627820403, 39.713790512 ] } },
{ "type": "Feature", "properties": { "RCDTS": "340490370022003", "School": "Gavin Central School", "City": "Ingleside", "demSCHOOLlow": 53.6, "ISAT13": 63.7, "PSAE13": " ", "ACT13": " ", "LATITUDE": 42.39511, "LONGITUDE": -88.141112 }, "geometry": { "type": "Point", "coordinates": [ -88.141112, 42.39511 ] } },
{ "type": "Feature", "properties": { "RCDTS": "340491260170001", "School": "Zion-Benton Twnshp Hi Sch", "City": "Zion", "demSCHOOLlow": 53.6, "ISAT13": " ", "PSAE13": 36.5, "ACT13": 17.8, "LATITUDE": 42.456605, "LONGITUDE": -87.864454 }, "geometry": { "type": "Point", "coordinates": [ -87.864454, 42.456605 ] } },
{ "type": "Feature", "properties": { "RCDTS": "470712310041002", "School": "Rochelle Middle School", "City": "Rochelle", "demSCHOOLlow": 53.6, "ISAT13": 51.7, "PSAE13": " ", "ACT13": " ", "LATITUDE": 41.93047, "LONGITUDE": -89.062371 }, "geometry": { "type": "Point", "coordinates": [ -89.062371, 41.93047 ] } },
{ "type": "Feature", "properties": { "RCDTS": "51084186025201C", "School": "Springfield Ball Charter School", "City": "Springfield", "demSCHOOLlow": 53.6, "ISAT13": 51.3, "PSAE13": " ", "ACT13": " ", "LATITUDE": 39.779868, "LONGITUDE": -89.618074 }, "geometry": { "type": "Point", "coordinates": [ -89.618074, 39.779868 ] } },
{ "type": "Feature", "properties": { "RCDTS": "120510200261007", "School": "Parkview Jr High School", "City": "Lawrenceville", "demSCHOOLlow": 53.7, "ISAT13": 45.4, "PSAE13": " ", "ACT13": " ", "LATITUDE": 38.721374, "LONGITUDE": -87.691966 }, "geometry": { "type": "Point", "coordinates": [ -87.691966, 38.721374 ] } },
{ "type": "Feature", "properties": { "RCDTS": "410570090260001", "School": "Granite City High School", "City": "Granite City", "demSCHOOLlow": 53.7, "ISAT13": " ", "PSAE13": 35.1, "ACT13": 18.4, "LATITUDE": 38.71705, "LONGITUDE": -90.124521 }, "geometry": { "type": "Point", "coordinates": [ -90.124521, 38.71705 ] } },
{ "type": "Feature", "properties": { "RCDTS": "490810410252021", "School": "RICMS", "City": "Rock Island", "demSCHOOLlow": 53.7, "ISAT13": 52.9, "PSAE13": " ", "ACT13": " ", "LATITUDE": 41.490200074, "LONGITUDE": -90.573782112 }, "geometry": { "type": "Point", "coordinates": [ -90.573782112, 41.490200074 ] } },
{ "type": "Feature", "properties": { "RCDTS": "200970050262007", "School": "Crossville Attendance Center", "City": "Crossville", "demSCHOOLlow": 53.8, "ISAT13": 52.8, "PSAE13": " ", "ACT13": " ", "LATITUDE": 38.088598249, "LONGITUDE": -88.162398485 }, "geometry": { "type": "Point", "coordinates": [ -88.162398485, 38.088598249 ] } },
{ "type": "Feature", "properties": { "RCDTS": "260621850262004", "School": "Lincoln Elem School", "City": "Macomb", "demSCHOOLlow": 53.8, "ISAT13": 65.9, "PSAE13": " ", "ACT13": " ", "LATITUDE": 40.46115, "LONGITUDE": -90.656314 }, "geometry": { "type": "Point", "coordinates": [ -90.656314, 40.46115 ] } },
{ "type": "Feature", "properties": { "RCDTS": "070161110021001", "School": "Liberty Junior High School", "City": "Burbank", "demSCHOOLlow": 53.9, "ISAT13": 50.6, "PSAE13": " ", "ACT13": " ", "LATITUDE": 41.745002, "LONGITUDE": -87.768342 }, "geometry": { "type": "Point", "coordinates": [ -87.768342, 41.745002 ] } },
{ "type": "Feature", "properties": { "RCDTS": "310450460222056", "School": "Otter Creek Elem School", "City": "Elgin", "demSCHOOLlow": 53.9, "ISAT13": 55.3, "PSAE13": " ", "ACT13": " ", "LATITUDE": 41.995851, "LONGITUDE": -88.338634 }, "geometry": { "type": "Point", "coordinates": [ -88.338634, 41.995851 ] } },
{ "type": "Feature", "properties": { "RCDTS": "490810410251005", "School": "Washington Jr High School", "City": "Rock Island", "demSCHOOLlow": 53.9, "ISAT13": 46.9, "PSAE13": " ", "ACT13": " ", "LATITUDE": 41.492847, "LONGITUDE": -90.553013 }, "geometry": { "type": "Point", "coordinates": [ -90.553013, 41.492847 ] } },
{ "type": "Feature", "properties": { "RCDTS": "050160690022001", "School": "Thomas Edison Elem School", "City": "Morton Grove", "demSCHOOLlow": 54.0, "ISAT13": 61.4, "PSAE13": " ", "ACT13": " ", "LATITUDE": 42.030063, "LONGITUDE": -87.764525 }, "geometry": { "type": "Point", "coordinates": [ -87.764525, 42.030063 ] } },
{ "type": "Feature", "properties": { "RCDTS": "280063400261001", "School": "Bureau Valley South", "City": "Buda", "demSCHOOLlow": 54.0, "ISAT13": 57.8, "PSAE13": " ", "ACT13": " ", "LATITUDE": 41.329165, "LONGITUDE": -89.680937 }, "geometry": { "type": "Point", "coordinates": [ -89.680937, 41.329165 ] } },
{ "type": "Feature", "properties": { "RCDTS": "020910170220001", "School": "Cobden High School", "City": "Cobden", "demSCHOOLlow": 54.1, "ISAT13": " ", "PSAE13": 51.8, "ACT13": 18.2, "LATITUDE": 37.536144, "LONGITUDE": -89.255402 }, "geometry": { "type": "Point", "coordinates": [ -89.255402, 37.536144 ] } },
{ "type": "Feature", "properties": { "RCDTS": "090100040262021", "School": "Westview Elem School", "City": "Champaign", "demSCHOOLlow": 54.1, "ISAT13": 60.3, "PSAE13": " ", "ACT13": " ", "LATITUDE": 40.108917, "LONGITUDE": -88.267258 }, "geometry": { "type": "Point", "coordinates": [ -88.267258, 40.108917 ] } },
{ "type": "Feature", "properties": { "RCDTS": "130580070042001", "School": "Iuka Comm Cons School", "City": "Iuka", "demSCHOOLlow": 54.1, "ISAT13": 64.0, "PSAE13": " ", "ACT13": " ", "LATITUDE": 38.613224, "LONGITUDE": -88.790329 }, "geometry": { "type": "Point", "coordinates": [ -88.790329, 38.613224 ] } },
{ "type": "Feature", "properties": { "RCDTS": "170534290042005", "School": "Washington Elem School", "City": "Pontiac", "demSCHOOLlow": 54.1, "ISAT13": 54.4, "PSAE13": " ", "ACT13": " ", "LATITUDE": 40.881182, "LONGITUDE": -88.617586 }, "geometry": { "type": "Point", "coordinates": [ -88.617586, 40.881182 ] } },
{ "type": "Feature", "properties": { "RCDTS": "260343470041001", "School": "La Harpe Junior High School", "City": "La Harpe", "demSCHOOLlow": 54.1, "ISAT13": 39.2, "PSAE13": " ", "ACT13": " ", "LATITUDE": 40.583505, "LONGITUDE": -90.972998 }, "geometry": { "type": "Point", "coordinates": [ -90.972998, 40.583505 ] } },
{ "type": "Feature", "properties": { "RCDTS": "260621030262001", "School": "West Prairie North Elementary", "City": "Good Hope", "demSCHOOLlow": 54.1, "ISAT13": 58.1, "PSAE13": " ", "ACT13": " ", "LATITUDE": 40.55762, "LONGITUDE": -90.672288 }, "geometry": { "type": "Point", "coordinates": [ -90.672288, 40.55762 ] } },
{ "type": "Feature", "properties": { "RCDTS": "340490030042005", "School": "Newport Elem School", "City": "Wadsworth", "demSCHOOLlow": 54.1, "ISAT13": 57.7, "PSAE13": " ", "ACT13": " ", "LATITUDE": 42.460105, "LONGITUDE": -87.937377 }, "geometry": { "type": "Point", "coordinates": [ -87.937377, 42.460105 ] } },
{ "type": "Feature", "properties": { "RCDTS": "490810300170001", "School": "United Twp High School", "City": "East Moline", "demSCHOOLlow": 54.2, "ISAT13": " ", "PSAE13": 38.5, "ACT13": 18.3, "LATITUDE": 41.49034, "LONGITUDE": -90.433 }, "geometry": { "type": "Point", "coordinates": [ -90.433, 41.49034 ] } },
{ "type": "Feature", "properties": { "RCDTS": "050160590041016", "School": "Friendship Jr High School", "City": "Des Plaines", "demSCHOOLlow": 54.3, "ISAT13": 60.6, "PSAE13": " ", "ACT13": " ", "LATITUDE": 42.026805, "LONGITUDE": -87.934458 }, "geometry": { "type": "Point", "coordinates": [ -87.934458, 42.026805 ] } },
{ "type": "Feature", "properties": { "RCDTS": "050160620042005", "School": "Forest Elem School", "City": "Des Plaines", "demSCHOOLlow": 54.3, "ISAT13": 60.9, "PSAE13": " ", "ACT13": " ", "LATITUDE": 42.027538, "LONGITUDE": -87.90645 }, "geometry": { "type": "Point", "coordinates": [ -87.90645, 42.027538 ] } },
{ "type": "Feature", "properties": { "RCDTS": "070161220022001", "School": "Columbus Manor Elem School", "City": "Oak Lawn", "demSCHOOLlow": 54.3, "ISAT13": 72.0, "PSAE13": " ", "ACT13": " ", "LATITUDE": 41.715977, "LONGITUDE": -87.767514 }, "geometry": { "type": "Point", "coordinates": [ -87.767514, 41.715977 ] } },
{ "type": "Feature", "properties": { "RCDTS": "100680120261002", "School": "Litchfield Middle School", "City": "Litchfield", "demSCHOOLlow": 54.3, "ISAT13": 49.2, "PSAE13": " ", "ACT13": " ", "LATITUDE": 39.188988, "LONGITUDE": -89.655234 }, "geometry": { "type": "Point", "coordinates": [ -89.655234, 39.188988 ] } },
{ "type": "Feature", "properties": { "RCDTS": "170640050262005", "School": "Fairview Elem School", "City": "Normal", "demSCHOOLlow": 54.3, "ISAT13": 50.8, "PSAE13": " ", "ACT13": " ", "LATITUDE": 40.524806, "LONGITUDE": -88.993707 }, "geometry": { "type": "Point", "coordinates": [ -88.993707, 40.524806 ] } },
{ "type": "Feature", "properties": { "RCDTS": "410570100262013", "School": "Jefferson Elem School", "City": "Collinsville", "demSCHOOLlow": 54.3, "ISAT13": 66.7, "PSAE13": " ", "ACT13": " ", "LATITUDE": 38.660649, "LONGITUDE": -90.004515 }, "geometry": { "type": "Point", "coordinates": [ -90.004515, 38.660649 ] } },
{ "type": "Feature", "properties": { "RCDTS": "56099365U262015", "School": "Kenneth L Hermansen Elementary", "City": "Romeoville", "demSCHOOLlow": 54.3, "ISAT13": 58.2, "PSAE13": " ", "ACT13": " ", "LATITUDE": 41.62392, "LONGITUDE": -88.136974 }, "geometry": { "type": "Point", "coordinates": [ -88.136974, 41.62392 ] } },
{ "type": "Feature", "properties": { "RCDTS": "070161260022002", "School": "Lane Elem School", "City": "Alsip", "demSCHOOLlow": 54.4, "ISAT13": 56.6, "PSAE13": " ", "ACT13": " ", "LATITUDE": 41.669172, "LONGITUDE": -87.73348 }, "geometry": { "type": "Point", "coordinates": [ -87.73348, 41.669172 ] } },
{ "type": "Feature", "properties": { "RCDTS": "120510200262007", "School": "Parkside Elementary School", "City": "Lawrenceville", "demSCHOOLlow": 54.4, "ISAT13": 52.4, "PSAE13": " ", "ACT13": " ", "LATITUDE": 38.721291, "LONGITUDE": -87.693237 }, "geometry": { "type": "Point", "coordinates": [ -87.693237, 38.721291 ] } },
{ "type": "Feature", "properties": { "RCDTS": "320380100260001", "School": "Iroquois West High School", "City": "Gilman", "demSCHOOLlow": 54.4, "ISAT13": " ", "PSAE13": 51.3, "ACT13": 19.1, "LATITUDE": 40.768505, "LONGITUDE": -87.986643 }, "geometry": { "type": "Point", "coordinates": [ -87.986643, 40.768505 ] } },
{ "type": "Feature", "properties": { "RCDTS": "510840140262003", "School": "Riverton Elem School", "City": "Riverton", "demSCHOOLlow": 54.4, "ISAT13": 58.2, "PSAE13": " ", "ACT13": " ", "LATITUDE": 39.846497, "LONGITUDE": -89.539502 }, "geometry": { "type": "Point", "coordinates": [ -89.539502, 39.846497 ] } },
{ "type": "Feature", "properties": { "RCDTS": "11012004C261001", "School": "Casey-Westfield Jr High", "City": "Casey", "demSCHOOLlow": 54.5, "ISAT13": 66.3, "PSAE13": " ", "ACT13": " ", "LATITUDE": 39.30105, "LONGITUDE": -87.987413 }, "geometry": { "type": "Point", "coordinates": [ -87.987413, 39.30105 ] } },
{ "type": "Feature", "properties": { "RCDTS": "050160150042013", "School": "Gray M Sanborn Elem School", "City": "Palatine", "demSCHOOLlow": 54.6, "ISAT13": 56.9, "PSAE13": " ", "ACT13": " ", "LATITUDE": 42.1116, "LONGITUDE": -88.038807 }, "geometry": { "type": "Point", "coordinates": [ -88.038807, 42.1116 ] } },
{ "type": "Feature", "properties": { "RCDTS": "380540270022007", "School": "Washington-Monroe Elem School", "City": "Lincoln", "demSCHOOLlow": 54.6, "ISAT13": 55.6, "PSAE13": " ", "ACT13": " ", "LATITUDE": 40.14549, "LONGITUDE": -89.358431 }, "geometry": { "type": "Point", "coordinates": [ -89.358431, 40.14549 ] } },
{ "type": "Feature", "properties": { "RCDTS": "440630470042001", "School": "Canterbury Elem School", "City": "Crystal Lake", "demSCHOOLlow": 54.7, "ISAT13": 62.6, "PSAE13": " ", "ACT13": " ", "LATITUDE": 42.216145, "LONGITUDE": -88.31978 }, "geometry": { "type": "Point", "coordinates": [ -88.31978, 42.216145 ] } },
{ "type": "Feature", "properties": { "RCDTS": "190220930042001", "School": "Carol Stream Elem School", "City": "Carol Stream", "demSCHOOLlow": 54.8, "ISAT13": 58.7, "PSAE13": " ", "ACT13": " ", "LATITUDE": 41.912236, "LONGITUDE": -88.132352 }, "geometry": { "type": "Point", "coordinates": [ -88.132352, 41.912236 ] } },
{ "type": "Feature", "properties": { "RCDTS": "200930170242001", "School": "Allendale Elementary School", "City": "Allendale", "demSCHOOLlow": 54.8, "ISAT13": 65.3, "PSAE13": " ", "ACT13": " ", "LATITUDE": 38.526728, "LONGITUDE": -87.709851 }, "geometry": { "type": "Point", "coordinates": [ -87.709851, 38.526728 ] } },
{ "type": "Feature", "properties": { "RCDTS": "350501410022006", "School": "Lincoln Elem School", "City": "Ottawa", "demSCHOOLlow": 54.8, "ISAT13": 62.1, "PSAE13": " ", "ACT13": " ", "LATITUDE": 41.345602, "LONGITUDE": -88.855446 }, "geometry": { "type": "Point", "coordinates": [ -88.855446, 41.345602 ] } },
{ "type": "Feature", "properties": { "RCDTS": "400310010262001", "School": "Carrollton Grade School", "City": "Carrollton", "demSCHOOLlow": 54.8, "ISAT13": 62.6, "PSAE13": " ", "ACT13": " ", "LATITUDE": 39.297055, "LONGITUDE": -90.406125 }, "geometry": { "type": "Point", "coordinates": [ -90.406125, 39.297055 ] } },
{ "type": "Feature", "properties": { "RCDTS": "530900860022005", "School": "Lincoln Elem School", "City": "East Peoria", "demSCHOOLlow": 54.8, "ISAT13": 58.1, "PSAE13": " ", "ACT13": " ", "LATITUDE": 40.654846, "LONGITUDE": -89.568909 }, "geometry": { "type": "Point", "coordinates": [ -89.568909, 40.654846 ] } },
{ "type": "Feature", "properties": { "RCDTS": "080083140261001", "School": "West Carroll Middle School", "City": "Mount Carroll", "demSCHOOLlow": 54.9, "ISAT13": 52.6, "PSAE13": " ", "ACT13": " ", "LATITUDE": 42.091018, "LONGITUDE": -89.968046 }, "geometry": { "type": "Point", "coordinates": [ -89.968046, 42.091018 ] } },
{ "type": "Feature", "properties": { "RCDTS": "310451290221006", "School": "Herget Middle School", "City": "Aurora", "demSCHOOLlow": 54.9, "ISAT13": 49.1, "PSAE13": " ", "ACT13": " ", "LATITUDE": 41.78078, "LONGITUDE": -88.385466 }, "geometry": { "type": "Point", "coordinates": [ -88.385466, 41.78078 ] } },
{ "type": "Feature", "properties": { "RCDTS": "460050010262002", "School": "Brown County Elementary School", "City": "Mount Sterling", "demSCHOOLlow": 54.9, "ISAT13": 57.5, "PSAE13": " ", "ACT13": " ", "LATITUDE": 39.990514, "LONGITUDE": -90.765483 }, "geometry": { "type": "Point", "coordinates": [ -90.765483, 39.990514 ] } },
{ "type": "Feature", "properties": { "RCDTS": "200830040260001", "School": "Eldorado High School", "City": "Eldorado", "demSCHOOLlow": 55.0, "ISAT13": " ", "PSAE13": 32.8, "ACT13": 16.2, "LATITUDE": 37.819863, "LONGITUDE": -88.436166 }, "geometry": { "type": "Point", "coordinates": [ -88.436166, 37.819863 ] } },
{ "type": "Feature", "properties": { "RCDTS": "480720630022002", "School": "Norwood Primary School", "City": "Peoria", "demSCHOOLlow": 55.0, "ISAT13": 68.7, "PSAE13": " ", "ACT13": " ", "LATITUDE": 40.687774, "LONGITUDE": -89.678071 }, "geometry": { "type": "Point", "coordinates": [ -89.678071, 40.687774 ] } },
{ "type": "Feature", "properties": { "RCDTS": "56099201U262006", "School": "Monee Elementary School", "City": "Monee", "demSCHOOLlow": 55.0, "ISAT13": 54.6, "PSAE13": " ", "ACT13": " ", "LATITUDE": 41.422869, "LONGITUDE": -87.728391 }, "geometry": { "type": "Point", "coordinates": [ -87.728391, 41.422869 ] } },
{ "type": "Feature", "properties": { "RCDTS": "380540880022005", "School": "New Holland-Middletown Elem Sch", "City": "Middletown", "demSCHOOLlow": 55.1, "ISAT13": 52.9, "PSAE13": " ", "ACT13": " ", "LATITUDE": 40.099597, "LONGITUDE": -89.582715 }, "geometry": { "type": "Point", "coordinates": [ -89.582715, 40.099597 ] } },
{ "type": "Feature", "properties": { "RCDTS": "390740570262002", "School": "Deland-Weldon Elem School", "City": "Weldon", "demSCHOOLlow": 55.1, "ISAT13": 67.2, "PSAE13": " ", "ACT13": " ", "LATITUDE": 40.129163, "LONGITUDE": -88.688033 }, "geometry": { "type": "Point", "coordinates": [ -88.688033, 40.129163 ] } },
{ "type": "Feature", "properties": { "RCDTS": "390550610252032", "School": "Johns Hill Magnet School", "City": "Decatur", "demSCHOOLlow": 55.2, "ISAT13": 62.7, "PSAE13": " ", "ACT13": " ", "LATITUDE": 39.838705, "LONGITUDE": -88.943144 }, "geometry": { "type": "Point", "coordinates": [ -88.943144, 39.838705 ] } },
{ "type": "Feature", "properties": { "RCDTS": "11012004C262003", "School": "Monroe Elem School", "City": "Casey", "demSCHOOLlow": 55.2, "ISAT13": 61.9, "PSAE13": " ", "ACT13": " ", "LATITUDE": 39.294892, "LONGITUDE": -87.990397 }, "geometry": { "type": "Point", "coordinates": [ -87.990397, 39.294892 ] } },
{ "type": "Feature", "properties": { "RCDTS": "56099365U261005", "School": "Jane Addams Middle School", "City": "Bolingbrook", "demSCHOOLlow": 55.3, "ISAT13": 56.8, "PSAE13": " ", "ACT13": " ", "LATITUDE": 41.69014, "LONGITUDE": -88.104462 }, "geometry": { "type": "Point", "coordinates": [ -88.104462, 41.69014 ] } },
{ "type": "Feature", "properties": { "RCDTS": "020440640022001", "School": "Cypress Elem School", "City": "Cypress", "demSCHOOLlow": 55.4, "ISAT13": 73.5, "PSAE13": " ", "ACT13": " ", "LATITUDE": 37.371622, "LONGITUDE": -89.020994 }, "geometry": { "type": "Point", "coordinates": [ -89.020994, 37.371622 ] } },
{ "type": "Feature", "properties": { "RCDTS": "190220680022003", "School": "Meadowview Elem School", "City": "Woodridge", "demSCHOOLlow": 55.4, "ISAT13": 75.0, "PSAE13": " ", "ACT13": " ", "LATITUDE": 41.767813, "LONGITUDE": -88.048254 }, "geometry": { "type": "Point", "coordinates": [ -88.048254, 41.767813 ] } },
{ "type": "Feature", "properties": { "RCDTS": "240470880262003", "School": "Centennial Elem School", "City": "Plano", "demSCHOOLlow": 55.4, "ISAT13": 50.3, "PSAE13": " ", "ACT13": " ", "LATITUDE": 41.656242, "LONGITUDE": -88.536964 }, "geometry": { "type": "Point", "coordinates": [ -88.536964, 41.656242 ] } },
{ "type": "Feature", "properties": { "RCDTS": "260343370260001", "School": "Southeastern Jr\/Sr High School", "City": "Augusta", "demSCHOOLlow": 55.4, "ISAT13": 59.0, "PSAE13": 47.2, "ACT13": 19.3, "LATITUDE": 40.228804, "LONGITUDE": -90.951636 }, "geometry": { "type": "Point", "coordinates": [ -90.951636, 40.228804 ] } },
{ "type": "Feature", "properties": { "RCDTS": "410570080262009", "School": "Parkside Primary School", "City": "Bethalto", "demSCHOOLlow": 55.4, "ISAT13": 46.3, "PSAE13": " ", "ACT13": " ", "LATITUDE": 38.913834, "LONGITUDE": -90.033816 }, "geometry": { "type": "Point", "coordinates": [ -90.033816, 38.913834 ] } },
{ "type": "Feature", "properties": { "RCDTS": "510841860252022", "School": "Laketown Elem School", "City": "Springfield", "demSCHOOLlow": 55.4, "ISAT13": 65.4, "PSAE13": " ", "ACT13": " ", "LATITUDE": 39.753115, "LONGITUDE": -89.627409 }, "geometry": { "type": "Point", "coordinates": [ -89.627409, 39.753115 ] } },
{ "type": "Feature", "properties": { "RCDTS": "150162990252510", "School": "Pritzker Elem School", "City": "Chicago", "demSCHOOLlow": 55.5, "ISAT13": 68.8, "PSAE13": " ", "ACT13": " ", "LATITUDE": 41.907127, "LONGITUDE": -87.677612 }, "geometry": { "type": "Point", "coordinates": [ -87.677612, 41.907127 ] } },
{ "type": "Feature", "properties": { "RCDTS": "190220160021004", "School": "Glenside Middle School", "City": "Glendale Heights", "demSCHOOLlow": 55.5, "ISAT13": 59.4, "PSAE13": " ", "ACT13": " ", "LATITUDE": 41.916274, "LONGITUDE": -88.081431 }, "geometry": { "type": "Point", "coordinates": [ -88.081431, 41.916274 ] } },
{ "type": "Feature", "properties": { "RCDTS": "200961000262005", "School": "Wayne City Attendance Center", "City": "Wayne City", "demSCHOOLlow": 55.5, "ISAT13": 61.4, "PSAE13": " ", "ACT13": " ", "LATITUDE": 38.34543, "LONGITUDE": -88.588079 }, "geometry": { "type": "Point", "coordinates": [ -88.588079, 38.34543 ] } },
{ "type": "Feature", "properties": { "RCDTS": "240470880261001", "School": "Plano Middle School", "City": "Plano", "demSCHOOLlow": 55.5, "ISAT13": 56.1, "PSAE13": " ", "ACT13": " ", "LATITUDE": 41.655937, "LONGITUDE": -88.532166 }, "geometry": { "type": "Point", "coordinates": [ -88.532166, 41.655937 ] } },
{ "type": "Feature", "properties": { "RCDTS": "041011220221005", "School": "Harlem Middle School", "City": "Loves Park", "demSCHOOLlow": 55.6, "ISAT13": 45.5, "PSAE13": " ", "ACT13": " ", "LATITUDE": 42.325002, "LONGITUDE": -89.05301 }, "geometry": { "type": "Point", "coordinates": [ -89.05301, 42.325002 ] } },
{ "type": "Feature", "properties": { "RCDTS": "150162990252078", "School": "Beaubien Elem School", "City": "Chicago", "demSCHOOLlow": 55.6, "ISAT13": 72.3, "PSAE13": " ", "ACT13": " ", "LATITUDE": 41.9723, "LONGITUDE": -87.757618 }, "geometry": { "type": "Point", "coordinates": [ -87.757618, 41.9723 ] } },
{ "type": "Feature", "properties": { "RCDTS": "240470880262004", "School": "Emily G Johns School", "City": "Plano", "demSCHOOLlow": 55.6, "ISAT13": 56.8, "PSAE13": " ", "ACT13": " ", "LATITUDE": 41.6578, "LONGITUDE": -88.5028 }, "geometry": { "type": "Point", "coordinates": [ -88.5028, 41.6578 ] } },
{ "type": "Feature", "properties": { "RCDTS": "250330100262004", "School": "East Side Elementary School", "City": "Mc Leansboro", "demSCHOOLlow": 55.6, "ISAT13": 59.0, "PSAE13": " ", "ACT13": " ", "LATITUDE": 38.089459581, "LONGITUDE": -88.52981954 }, "geometry": { "type": "Point", "coordinates": [ -88.52981954, 38.089459581 ] } },
{ "type": "Feature", "properties": { "RCDTS": "550980030262005", "School": "Tampico Elem School", "City": "Tampico", "demSCHOOLlow": 55.6, "ISAT13": 72.2, "PSAE13": " ", "ACT13": " ", "LATITUDE": 41.632263, "LONGITUDE": -89.788677 }, "geometry": { "type": "Point", "coordinates": [ -89.788677, 41.632263 ] } },
{ "type": "Feature", "properties": { "RCDTS": "040041000262005", "School": "Lincoln Elem School", "City": "Belvidere", "demSCHOOLlow": 55.7, "ISAT13": 55.4, "PSAE13": " ", "ACT13": " ", "LATITUDE": 42.275986, "LONGITUDE": -88.831751 }, "geometry": { "type": "Point", "coordinates": [ -88.831751, 42.275986 ] } },
{ "type": "Feature", "properties": { "RCDTS": "150162990250047", "School": "Lincoln Park High School", "City": "Chicago", "demSCHOOLlow": 55.7, "ISAT13": " ", "PSAE13": 70.9, "ACT13": 22.4, "LATITUDE": 41.91953, "LONGITUDE": -87.645532 }, "geometry": { "type": "Point", "coordinates": [ -87.645532, 41.91953 ] } },
{ "type": "Feature", "properties": { "RCDTS": "220290010261001", "School": "Astoria Junior High School", "City": "Astoria", "demSCHOOLlow": 55.7, "ISAT13": 37.1, "PSAE13": " ", "ACT13": " ", "LATITUDE": 40.228595, "LONGITUDE": -90.352674 }, "geometry": { "type": "Point", "coordinates": [ -90.352674, 40.228595 ] } },
{ "type": "Feature", "properties": { "RCDTS": "150162990252451", "School": "Sheridan Math & Science Acad ES", "City": "Chicago", "demSCHOOLlow": 55.8, "ISAT13": 84.4, "PSAE13": " ", "ACT13": " ", "LATITUDE": 41.844493, "LONGITUDE": -87.640484 }, "geometry": { "type": "Point", "coordinates": [ -87.640484, 41.844493 ] } },
{ "type": "Feature", "properties": { "RCDTS": "190220680022006", "School": "John L Sipley Elem School", "City": "Woodridge", "demSCHOOLlow": 55.8, "ISAT13": 50.7, "PSAE13": " ", "ACT13": " ", "LATITUDE": 41.735726, "LONGITUDE": -88.050258 }, "geometry": { "type": "Point", "coordinates": [ -88.050258, 41.735726 ] } },
{ "type": "Feature", "properties": { "RCDTS": "410570090261004", "School": "Grigsby Middle School", "City": "Granite City", "demSCHOOLlow": 55.8, "ISAT13": 48.3, "PSAE13": " ", "ACT13": " ", "LATITUDE": 38.730283, "LONGITUDE": -90.082802 }, "geometry": { "type": "Point", "coordinates": [ -90.082802, 38.730283 ] } },
{ "type": "Feature", "properties": { "RCDTS": "550983010170001", "School": "Rock Falls Township High School", "City": "Rock Falls", "demSCHOOLlow": 55.8, "ISAT13": " ", "PSAE13": 53.0, "ACT13": 19.1, "LATITUDE": 41.780463, "LONGITUDE": -89.706151 }, "geometry": { "type": "Point", "coordinates": [ -89.706151, 41.780463 ] } },
{ "type": "Feature", "properties": { "RCDTS": "030250100262002", "School": "Altamont Grade School", "City": "Altamont", "demSCHOOLlow": 55.9, "ISAT13": 63.0, "PSAE13": " ", "ACT13": " ", "LATITUDE": 39.055841, "LONGITUDE": -88.745734 }, "geometry": { "type": "Point", "coordinates": [ -88.745734, 39.055841 ] } },
{ "type": "Feature", "properties": { "RCDTS": "050160630021003", "School": "Gemini Jr High School", "City": "Niles", "demSCHOOLlow": 55.9, "ISAT13": 63.5, "PSAE13": " ", "ACT13": " ", "LATITUDE": 42.042817, "LONGITUDE": -87.840408 }, "geometry": { "type": "Point", "coordinates": [ -87.840408, 42.042817 ] } },
{ "type": "Feature", "properties": { "RCDTS": "100110080261005", "School": "Pana Jr High School", "City": "Pana", "demSCHOOLlow": 55.9, "ISAT13": 62.8, "PSAE13": " ", "ACT13": " ", "LATITUDE": 39.382497, "LONGITUDE": -89.088775 }, "geometry": { "type": "Point", "coordinates": [ -89.088775, 39.382497 ] } },
{ "type": "Feature", "properties": { "RCDTS": "130581000261001", "School": "Patoka Jr High School", "City": "Patoka", "demSCHOOLlow": 55.9, "ISAT13": 37.1, "PSAE13": " ", "ACT13": " ", "LATITUDE": 38.765063, "LONGITUDE": -89.085676 }, "geometry": { "type": "Point", "coordinates": [ -89.085676, 38.765063 ] } },
{ "type": "Feature", "properties": { "RCDTS": "340490760021003", "School": "West Oak Middle School", "City": "Mundelein", "demSCHOOLlow": 55.9, "ISAT13": 53.8, "PSAE13": " ", "ACT13": " ", "LATITUDE": 42.242429, "LONGITUDE": -88.013802 }, "geometry": { "type": "Point", "coordinates": [ -88.013802, 42.242429 ] } },
{ "type": "Feature", "properties": { "RCDTS": "07016901025001C", "School": "Southland College Prep", "City": "Richton Park", "demSCHOOLlow": 55.9, "ISAT13": " ", "PSAE13": 47.0, "ACT13": " ", "LATITUDE": 41.484220865, "LONGITUDE": -87.727517465 }, "geometry": { "type": "Point", "coordinates": [ -87.727517465, 41.484220865 ] } },
{ "type": "Feature", "properties": { "RCDTS": "030030020262005", "School": "Sorento Elem School", "City": "Sorento", "demSCHOOLlow": 56.0, "ISAT13": 72.7, "PSAE13": " ", "ACT13": " ", "LATITUDE": 38.995834, "LONGITUDE": -89.573316 }, "geometry": { "type": "Point", "coordinates": [ -89.573316, 38.995834 ] } },
{ "type": "Feature", "properties": { "RCDTS": "050160680022001", "School": "Devonshire Elem School", "City": "Skokie", "demSCHOOLlow": 56.0, "ISAT13": 68.8, "PSAE13": " ", "ACT13": " ", "LATITUDE": 42.044966, "LONGITUDE": -87.737286 }, "geometry": { "type": "Point", "coordinates": [ -87.737286, 42.044966 ] } },
{ "type": "Feature", "properties": { "RCDTS": "060160840021002", "School": "Hester Jr High School", "City": "Franklin Park", "demSCHOOLlow": 56.0, "ISAT13": 58.4, "PSAE13": " ", "ACT13": " ", "LATITUDE": 41.930362, "LONGITUDE": -87.866525 }, "geometry": { "type": "Point", "coordinates": [ -87.866525, 41.930362 ] } },
{ "type": "Feature", "properties": { "RCDTS": "060160855022001", "School": "River Grove Elem School", "City": "River Grove", "demSCHOOLlow": 56.0, "ISAT13": 61.0, "PSAE13": " ", "ACT13": " ", "LATITUDE": 41.927327, "LONGITUDE": -87.836997 }, "geometry": { "type": "Point", "coordinates": [ -87.836997, 41.927327 ] } },
{ "type": "Feature", "properties": { "RCDTS": "110150020261003", "School": "Mattoon Middle School", "City": "Mattoon", "demSCHOOLlow": 56.0, "ISAT13": 53.6, "PSAE13": " ", "ACT13": " ", "LATITUDE": 39.471088, "LONGITUDE": -88.36426 }, "geometry": { "type": "Point", "coordinates": [ -88.36426, 39.471088 ] } },
{ "type": "Feature", "properties": { "RCDTS": "400070400262001", "School": "Calhoun Elementary\/ Jr High Sch", "City": "Hardin", "demSCHOOLlow": 56.0, "ISAT13": 67.4, "PSAE13": " ", "ACT13": " ", "LATITUDE": 39.174523, "LONGITUDE": -90.62233 }, "geometry": { "type": "Point", "coordinates": [ -90.62233, 39.174523 ] } },
{ "type": "Feature", "properties": { "RCDTS": "540920110260005", "School": "Hoopeston Area High School", "City": "Hoopeston", "demSCHOOLlow": 56.0, "ISAT13": " ", "PSAE13": 42.9, "ACT13": 18.7, "LATITUDE": 40.45917, "LONGITUDE": -87.663308 }, "geometry": { "type": "Point", "coordinates": [ -87.663308, 40.45917 ] } },
{ "type": "Feature", "properties": { "RCDTS": "030262030261002", "School": "Vandalia Junior High School", "City": "Vandalia", "demSCHOOLlow": 56.1, "ISAT13": 47.3, "PSAE13": " ", "ACT13": " ", "LATITUDE": 38.974829, "LONGITUDE": -89.102144 }, "geometry": { "type": "Point", "coordinates": [ -89.102144, 38.974829 ] } },
{ "type": "Feature", "properties": { "RCDTS": "090101160222012", "School": "Yankee Ridge Elem School", "City": "Urbana", "demSCHOOLlow": 56.1, "ISAT13": 57.9, "PSAE13": " ", "ACT13": " ", "LATITUDE": 40.090611, "LONGITUDE": -88.199494 }, "geometry": { "type": "Point", "coordinates": [ -88.199494, 40.090611 ] } },
{ "type": "Feature", "properties": { "RCDTS": "110150050262001", "School": "Lake Crest Elem School", "City": "Oakland", "demSCHOOLlow": 56.1, "ISAT13": 46.9, "PSAE13": " ", "ACT13": " ", "LATITUDE": 39.657643, "LONGITUDE": -88.021584 }, "geometry": { "type": "Point", "coordinates": [ -88.021584, 39.657643 ] } },
{ "type": "Feature", "properties": { "RCDTS": "090100040261003", "School": "Edison Middle School", "City": "Champaign", "demSCHOOLlow": 56.2, "ISAT13": 54.0, "PSAE13": " ", "ACT13": " ", "LATITUDE": 40.110187, "LONGITUDE": -88.246943 }, "geometry": { "type": "Point", "coordinates": [ -88.246943, 40.110187 ] } },
{ "type": "Feature", "properties": { "RCDTS": "150162990252416", "School": "Ravenswood Elem School", "City": "Chicago", "demSCHOOLlow": 56.2, "ISAT13": 56.3, "PSAE13": " ", "ACT13": " ", "LATITUDE": 41.960369, "LONGITUDE": -87.67082 }, "geometry": { "type": "Point", "coordinates": [ -87.67082, 41.960369 ] } },
{ "type": "Feature", "properties": { "RCDTS": "270943040262002", "School": "United Elem Sch - West", "City": "Monmouth", "demSCHOOLlow": 56.2, "ISAT13": 62.3, "PSAE13": " ", "ACT13": " ", "LATITUDE": 40.942597, "LONGITUDE": -90.747438 }, "geometry": { "type": "Point", "coordinates": [ -90.747438, 40.942597 ] } },
{ "type": "Feature", "properties": { "RCDTS": "310451290220001", "School": "West Aurora High School", "City": "Aurora", "demSCHOOLlow": 56.2, "ISAT13": " ", "PSAE13": 44.2, "ACT13": 19.3, "LATITUDE": 41.763727, "LONGITUDE": -88.343114 }, "geometry": { "type": "Point", "coordinates": [ -88.343114, 41.763727 ] } },
{ "type": "Feature", "properties": { "RCDTS": "410570100262024", "School": "Dorris Intermediate Sch", "City": "Collinsville", "demSCHOOLlow": 56.2, "ISAT13": 62.8, "PSAE13": " ", "ACT13": " ", "LATITUDE": 38.693151, "LONGITUDE": -89.97053 }, "geometry": { "type": "Point", "coordinates": [ -89.97053, 38.693151 ] } },
{ "type": "Feature", "properties": { "RCDTS": "010750100262010", "School": "Pikeland Community School", "City": "Pittsfield", "demSCHOOLlow": 56.3, "ISAT13": 56.4, "PSAE13": " ", "ACT13": " ", "LATITUDE": 39.599851, "LONGITUDE": -90.800414 }, "geometry": { "type": "Point", "coordinates": [ -90.800414, 39.599851 ] } },
{ "type": "Feature", "properties": { "RCDTS": "300391400042001", "School": "Unity Point Elem School", "City": "Carbondale", "demSCHOOLlow": 56.3, "ISAT13": 69.2, "PSAE13": " ", "ACT13": " ", "LATITUDE": 37.670907, "LONGITUDE": -89.231625 }, "geometry": { "type": "Point", "coordinates": [ -89.231625, 37.670907 ] } },
{ "type": "Feature", "properties": { "RCDTS": "390740390262003", "School": "Atwood-Hammond Elem School", "City": "Atwood", "demSCHOOLlow": 56.3, "ISAT13": 64.4, "PSAE13": " ", "ACT13": " ", "LATITUDE": 39.806433, "LONGITUDE": -88.464151 }, "geometry": { "type": "Point", "coordinates": [ -88.464151, 39.806433 ] } },
{ "type": "Feature", "properties": { "RCDTS": "390740570261001", "School": "Deland-Weldon Middle School", "City": "Weldon", "demSCHOOLlow": 56.3, "ISAT13": 75.0, "PSAE13": " ", "ACT13": " ", "LATITUDE": 40.129163, "LONGITUDE": -88.688033 }, "geometry": { "type": "Point", "coordinates": [ -88.688033, 40.129163 ] } },
{ "type": "Feature", "properties": { "RCDTS": "500821180021013", "School": "West Jr High School", "City": "Belleville", "demSCHOOLlow": 56.3, "ISAT13": 58.1, "PSAE13": " ", "ACT13": " ", "LATITUDE": 38.545834, "LONGITUDE": -90.011135 }, "geometry": { "type": "Point", "coordinates": [ -90.011135, 38.545834 ] } },
{ "type": "Feature", "properties": { "RCDTS": "530900500022002", "School": "Beverly Manor Elementary School", "City": "Washington", "demSCHOOLlow": 56.3, "ISAT13": 43.9, "PSAE13": " ", "ACT13": " ", "LATITUDE": 40.693749, "LONGITUDE": -89.474082 }, "geometry": { "type": "Point", "coordinates": [ -89.474082, 40.693749 ] } },
{ "type": "Feature", "properties": { "RCDTS": "010750030262001", "School": "Pleasant Hill Elem School", "City": "Pleasant Hill", "demSCHOOLlow": 56.4, "ISAT13": 46.3, "PSAE13": " ", "ACT13": " ", "LATITUDE": 39.441754, "LONGITUDE": -90.868829 }, "geometry": { "type": "Point", "coordinates": [ -90.868829, 39.441754 ] } },
{ "type": "Feature", "properties": { "RCDTS": "040041000261002", "School": "Belvidere South Middle School", "City": "Belvidere", "demSCHOOLlow": 56.4, "ISAT13": 50.9, "PSAE13": " ", "ACT13": " ", "LATITUDE": 42.24784, "LONGITUDE": -88.828628 }, "geometry": { "type": "Point", "coordinates": [ -88.828628, 42.24784 ] } },
{ "type": "Feature", "properties": { "RCDTS": "150162990252468", "School": "Stone Scholastic Academy ES", "City": "Chicago", "demSCHOOLlow": 56.4, "ISAT13": 76.3, "PSAE13": " ", "ACT13": " ", "LATITUDE": 41.994873, "LONGITUDE": -87.684862 }, "geometry": { "type": "Point", "coordinates": [ -87.684862, 41.994873 ] } },
{ "type": "Feature", "properties": { "RCDTS": "210281960260001", "School": "Sesser-Valier High School", "City": "Sesser", "demSCHOOLlow": 56.4, "ISAT13": " ", "PSAE13": 43.9, "ACT13": 17.4, "LATITUDE": 38.081849, "LONGITUDE": -89.075708 }, "geometry": { "type": "Point", "coordinates": [ -89.075708, 38.081849 ] } },
{ "type": "Feature", "properties": { "RCDTS": "500821180021012", "School": "Central Jr High School", "City": "Belleville", "demSCHOOLlow": 56.4, "ISAT13": 58.1, "PSAE13": " ", "ACT13": " ", "LATITUDE": 38.490452, "LONGITUDE": -89.974875 }, "geometry": { "type": "Point", "coordinates": [ -89.974875, 38.490452 ] } },
{ "type": "Feature", "properties": { "RCDTS": "030250400262004", "School": "Edgewood Grade School", "City": "Edgewood", "demSCHOOLlow": 56.5, "ISAT13": 41.7, "PSAE13": " ", "ACT13": " ", "LATITUDE": 38.925505, "LONGITUDE": -88.664048 }, "geometry": { "type": "Point", "coordinates": [ -88.664048, 38.925505 ] } },
{ "type": "Feature", "properties": { "RCDTS": "030262020261001", "School": "St Elmo Jr High School", "City": "Saint Elmo", "demSCHOOLlow": 56.6, "ISAT13": 52.0, "PSAE13": " ", "ACT13": " ", "LATITUDE": 39.035183, "LONGITUDE": -88.851491 }, "geometry": { "type": "Point", "coordinates": [ -88.851491, 39.035183 ] } },
{ "type": "Feature", "properties": { "RCDTS": "150162990252955", "School": "LaSalle II Lang Acad Elem School", "City": "Chicago", "demSCHOOLlow": 56.6, "ISAT13": 67.8, "PSAE13": " ", "ACT13": " ", "LATITUDE": 41.902574727, "LONGITUDE": -87.673666853 }, "geometry": { "type": "Point", "coordinates": [ -87.673666853, 41.902574727 ] } },
{ "type": "Feature", "properties": { "RCDTS": "500821040021001", "School": "Joseph Arthur Middle School", "City": "O Fallon", "demSCHOOLlow": 56.6, "ISAT13": 57.5, "PSAE13": " ", "ACT13": " ", "LATITUDE": 38.589646, "LONGITUDE": -89.957008 }, "geometry": { "type": "Point", "coordinates": [ -89.957008, 38.589646 ] } },
{ "type": "Feature", "properties": { "RCDTS": "550980050261006", "School": "Challand Middle School", "City": "Sterling", "demSCHOOLlow": 56.6, "ISAT13": 55.7, "PSAE13": " ", "ACT13": " ", "LATITUDE": 41.803015, "LONGITUDE": -89.688972 }, "geometry": { "type": "Point", "coordinates": [ -89.688972, 41.803015 ] } },
{ "type": "Feature", "properties": { "RCDTS": "120800020262002", "School": "West Richland Elementary School", "City": "Noble", "demSCHOOLlow": 56.7, "ISAT13": 44.8, "PSAE13": " ", "ACT13": " ", "LATITUDE": 38.693886, "LONGITUDE": -88.222505 }, "geometry": { "type": "Point", "coordinates": [ -88.222505, 38.693886 ] } },
{ "type": "Feature", "properties": { "RCDTS": "200830040262004", "School": "Eldorado Elem School", "City": "Eldorado", "demSCHOOLlow": 56.7, "ISAT13": 41.9, "PSAE13": " ", "ACT13": " ", "LATITUDE": 37.827071, "LONGITUDE": -88.436385 }, "geometry": { "type": "Point", "coordinates": [ -88.436385, 37.827071 ] } },
{ "type": "Feature", "properties": { "RCDTS": "460690110262003", "School": "Meredosia-Chambersburg Elem Sch", "City": "Meredosia", "demSCHOOLlow": 56.7, "ISAT13": 47.9, "PSAE13": " ", "ACT13": " ", "LATITUDE": 39.83157, "LONGITUDE": -90.554731 }, "geometry": { "type": "Point", "coordinates": [ -90.554731, 39.83157 ] } },
{ "type": "Feature", "properties": { "RCDTS": "070161275021001", "School": "Elden D Finley Jr High School", "City": "Chicago Ridge", "demSCHOOLlow": 56.8, "ISAT13": 47.6, "PSAE13": " ", "ACT13": " ", "LATITUDE": 41.694866, "LONGITUDE": -87.773946 }, "geometry": { "type": "Point", "coordinates": [ -87.773946, 41.694866 ] } },
{ "type": "Feature", "properties": { "RCDTS": "200830030261002", "School": "Harrisburg Middle School", "City": "Harrisburg", "demSCHOOLlow": 56.8, "ISAT13": 46.0, "PSAE13": " ", "ACT13": " ", "LATITUDE": 37.713874, "LONGITUDE": -88.566855 }, "geometry": { "type": "Point", "coordinates": [ -88.566855, 37.713874 ] } },
{ "type": "Feature", "properties": { "RCDTS": "310450460222017", "School": "Glenbrook Elem School", "City": "Streamwood", "demSCHOOLlow": 56.8, "ISAT13": 61.8, "PSAE13": " ", "ACT13": " ", "LATITUDE": 42.03777, "LONGITUDE": -88.160613 }, "geometry": { "type": "Point", "coordinates": [ -88.160613, 42.03777 ] } },
{ "type": "Feature", "properties": { "RCDTS": "010750040262001", "School": "Griggsville-Perry Primary School", "City": "Griggsville", "demSCHOOLlow": 56.9, "ISAT13": 46.3, "PSAE13": " ", "ACT13": " ", "LATITUDE": 39.707157, "LONGITUDE": -90.725231 }, "geometry": { "type": "Point", "coordinates": [ -90.725231, 39.707157 ] } },
{ "type": "Feature", "properties": { "RCDTS": "210280470041002", "School": "Benton Grade Sch 5-8", "City": "Benton", "demSCHOOLlow": 56.9, "ISAT13": 50.5, "PSAE13": " ", "ACT13": " ", "LATITUDE": 37.99023, "LONGITUDE": -88.908122 }, "geometry": { "type": "Point", "coordinates": [ -88.908122, 37.99023 ] } },
{ "type": "Feature", "properties": { "RCDTS": "210281880260001", "School": "Zeigler-Royalton High School", "City": "Zeigler", "demSCHOOLlow": 56.9, "ISAT13": " ", "PSAE13": 36.3, "ACT13": 18.5, "LATITUDE": 37.932996, "LONGITUDE": -89.059656 }, "geometry": { "type": "Point", "coordinates": [ -89.059656, 37.932996 ] } },
{ "type": "Feature", "properties": { "RCDTS": "220291760262003", "School": "Avon Grade School", "City": "Avon", "demSCHOOLlow": 56.9, "ISAT13": 42.8, "PSAE13": " ", "ACT13": " ", "LATITUDE": 40.664226, "LONGITUDE": -90.431034 }, "geometry": { "type": "Point", "coordinates": [ -90.431034, 40.664226 ] } },
{ "type": "Feature", "properties": { "RCDTS": "280371900022001", "School": "Colona Grade School", "City": "Colona", "demSCHOOLlow": 56.9, "ISAT13": 44.8, "PSAE13": " ", "ACT13": " ", "LATITUDE": 41.47331, "LONGITUDE": -90.358109 }, "geometry": { "type": "Point", "coordinates": [ -90.358109, 41.47331 ] } },
{ "type": "Feature", "properties": { "RCDTS": "280372240262004", "School": "Galva Elem School", "City": "Galva", "demSCHOOLlow": 56.9, "ISAT13": 51.7, "PSAE13": " ", "ACT13": " ", "LATITUDE": 41.174679, "LONGITUDE": -90.044792 }, "geometry": { "type": "Point", "coordinates": [ -90.044792, 41.174679 ] } },
{ "type": "Feature", "properties": { "RCDTS": "510841860250003", "School": "Springfield Southeast High Sch", "City": "Springfield", "demSCHOOLlow": 56.9, "ISAT13": " ", "PSAE13": 34.3, "ACT13": 17.6, "LATITUDE": 39.779768, "LONGITUDE": -89.620342 }, "geometry": { "type": "Point", "coordinates": [ -89.620342, 39.779768 ] } },
{ "type": "Feature", "properties": { "RCDTS": "150162990250846", "School": "Community Services West HS", "City": "Chicago", "demSCHOOLlow": 57.1, "ISAT13": " ", "PSAE13": 2.8, "ACT13": 12.8, "LATITUDE": 41.865466, "LONGITUDE": -87.725105 }, "geometry": { "type": "Point", "coordinates": [ -87.725105, 41.865466 ] } },
{ "type": "Feature", "properties": { "RCDTS": "440631650032002", "School": "Locust Elem School", "City": "Marengo", "demSCHOOLlow": 57.1, "ISAT13": 62.7, "PSAE13": " ", "ACT13": " ", "LATITUDE": 42.242605, "LONGITUDE": -88.599712 }, "geometry": { "type": "Point", "coordinates": [ -88.599712, 42.242605 ] } },
{ "type": "Feature", "properties": { "RCDTS": "070161940022002", "School": "Eastview Elem School", "City": "Steger", "demSCHOOLlow": 57.2, "ISAT13": 48.8, "PSAE13": " ", "ACT13": " ", "LATITUDE": 41.469626, "LONGITUDE": -87.626846 }, "geometry": { "type": "Point", "coordinates": [ -87.626846, 41.469626 ] } },
{ "type": "Feature", "properties": { "RCDTS": "120130350261001", "School": "Floyd Henson Jr High Sch", "City": "Flora", "demSCHOOLlow": 57.2, "ISAT13": 55.4, "PSAE13": " ", "ACT13": " ", "LATITUDE": 38.678283, "LONGITUDE": -88.470355 }, "geometry": { "type": "Point", "coordinates": [ -88.470355, 38.678283 ] } },
{ "type": "Feature", "properties": { "RCDTS": "330482170261002", "School": "Abingdon Middle School", "City": "Abingdon", "demSCHOOLlow": 57.2, "ISAT13": 46.1, "PSAE13": " ", "ACT13": " ", "LATITUDE": 40.801514, "LONGITUDE": -90.405416 }, "geometry": { "type": "Point", "coordinates": [ -90.405416, 40.801514 ] } },
{ "type": "Feature", "properties": { "RCDTS": "550980030261004", "School": "Tampico Middle School", "City": "Tampico", "demSCHOOLlow": 57.3, "ISAT13": 64.8, "PSAE13": " ", "ACT13": " ", "LATITUDE": 41.676699209, "LONGITUDE": -89.938266611 }, "geometry": { "type": "Point", "coordinates": [ -89.938266611, 41.676699209 ] } },
{ "type": "Feature", "properties": { "RCDTS": "010750120262001", "School": "Western Barry Elem", "City": "Barry", "demSCHOOLlow": 57.5, "ISAT13": 40.1, "PSAE13": " ", "ACT13": " ", "LATITUDE": 39.697157, "LONGITUDE": -91.044896 }, "geometry": { "type": "Point", "coordinates": [ -91.044896, 39.697157 ] } },
{ "type": "Feature", "properties": { "RCDTS": "020910660220001", "School": "Dongola High School", "City": "Dongola", "demSCHOOLlow": 57.5, "ISAT13": " ", "PSAE13": 21.4, "ACT13": 17.0, "LATITUDE": 37.366262, "LONGITUDE": -89.163705 }, "geometry": { "type": "Point", "coordinates": [ -89.163705, 37.366262 ] } },
{ "type": "Feature", "properties": { "RCDTS": "120800010261002", "School": "East Richland Middle School", "City": "Olney", "demSCHOOLlow": 57.5, "ISAT13": 58.7, "PSAE13": " ", "ACT13": " ", "LATITUDE": 38.741881, "LONGITUDE": -88.066631 }, "geometry": { "type": "Point", "coordinates": [ -88.066631, 38.741881 ] } },
{ "type": "Feature", "properties": { "RCDTS": "220290030262003", "School": "Cuba Elem School", "City": "Cuba", "demSCHOOLlow": 57.5, "ISAT13": 50.0, "PSAE13": " ", "ACT13": " ", "LATITUDE": 40.490808, "LONGITUDE": -90.19176 }, "geometry": { "type": "Point", "coordinates": [ -90.19176, 40.490808 ] } },
{ "type": "Feature", "properties": { "RCDTS": "530901080022009", "School": "L E Starke Elem School", "City": "Pekin", "demSCHOOLlow": 57.5, "ISAT13": 72.3, "PSAE13": " ", "ACT13": " ", "LATITUDE": 40.583433, "LONGITUDE": -89.62155 }, "geometry": { "type": "Point", "coordinates": [ -89.62155, 40.583433 ] } },
{ "type": "Feature", "properties": { "RCDTS": "041011220222008", "School": "Rock Cut Elem School", "City": "Loves Park", "demSCHOOLlow": 57.6, "ISAT13": 44.8, "PSAE13": " ", "ACT13": " ", "LATITUDE": 42.335393, "LONGITUDE": -89.019475 }, "geometry": { "type": "Point", "coordinates": [ -89.019475, 42.335393 ] } },
{ "type": "Feature", "properties": { "RCDTS": "070161620022009", "School": "Illinois School", "City": "Park Forest", "demSCHOOLlow": 57.6, "ISAT13": 55.9, "PSAE13": " ", "ACT13": " ", "LATITUDE": 41.502231, "LONGITUDE": -87.678867 }, "geometry": { "type": "Point", "coordinates": [ -87.678867, 41.502231 ] } },
{ "type": "Feature", "properties": { "RCDTS": "080891450220001", "School": "Freeport High School", "City": "Freeport", "demSCHOOLlow": 57.6, "ISAT13": " ", "PSAE13": 46.5, "ACT13": 19.2, "LATITUDE": 42.289358, "LONGITUDE": -89.62892 }, "geometry": { "type": "Point", "coordinates": [ -89.62892, 42.289358 ] } },
{ "type": "Feature", "properties": { "RCDTS": "190220880160001", "School": "Addison Trail High School", "City": "Addison", "demSCHOOLlow": 57.6, "ISAT13": " ", "PSAE13": 48.8, "ACT13": 19.0, "LATITUDE": 41.930355, "LONGITUDE": -88.022392 }, "geometry": { "type": "Point", "coordinates": [ -88.022392, 41.930355 ] } },
{ "type": "Feature", "properties": { "RCDTS": "200962000262003", "School": "Johnsonville Elem School", "City": "Johnsonville", "demSCHOOLlow": 57.6, "ISAT13": 71.2, "PSAE13": " ", "ACT13": " ", "LATITUDE": 38.521928936, "LONGITUDE": -88.530003499 }, "geometry": { "type": "Point", "coordinates": [ -88.530003499, 38.521928936 ] } },
{ "type": "Feature", "properties": { "RCDTS": "500821190021001", "School": "Belle Valley School South", "City": "Belleville", "demSCHOOLlow": 57.6, "ISAT13": 51.6, "PSAE13": " ", "ACT13": " ", "LATITUDE": 38.4957208, "LONGITUDE": -89.935308205 }, "geometry": { "type": "Point", "coordinates": [ -89.935308205, 38.4957208 ] } },
{ "type": "Feature", "properties": { "RCDTS": "56099365U260007", "School": "Bolingbrook High School", "City": "Bolingbrook", "demSCHOOLlow": 57.6, "ISAT13": " ", "PSAE13": 46.9, "ACT13": 19.2, "LATITUDE": 41.687962, "LONGITUDE": -88.089419 }, "geometry": { "type": "Point", "coordinates": [ -88.089419, 41.687962 ] } },
{ "type": "Feature", "properties": { "RCDTS": "060162120160002", "School": "West Leyden High School", "City": "Northlake", "demSCHOOLlow": 57.7, "ISAT13": " ", "PSAE13": 35.0, "ACT13": 18.4, "LATITUDE": 41.924904, "LONGITUDE": -87.903992 }, "geometry": { "type": "Point", "coordinates": [ -87.903992, 41.924904 ] } },
{ "type": "Feature", "properties": { "RCDTS": "380601260262002", "School": "New Central Elem School", "City": "Havana", "demSCHOOLlow": 57.7, "ISAT13": 62.5, "PSAE13": " ", "ACT13": " ", "LATITUDE": 40.301399, "LONGITUDE": -90.059349 }, "geometry": { "type": "Point", "coordinates": [ -90.059349, 40.301399 ] } },
{ "type": "Feature", "properties": { "RCDTS": "540920020261003", "School": "Westville Jr High School", "City": "Westville", "demSCHOOLlow": 57.7, "ISAT13": 38.0, "PSAE13": " ", "ACT13": " ", "LATITUDE": 40.047091, "LONGITUDE": -87.635276 }, "geometry": { "type": "Point", "coordinates": [ -87.635276, 40.047091 ] } },
{ "type": "Feature", "properties": { "RCDTS": "020610010261001", "School": "Massac Jr High School", "City": "Metropolis", "demSCHOOLlow": 57.8, "ISAT13": 62.8, "PSAE13": " ", "ACT13": " ", "LATITUDE": 37.1824, "LONGITUDE": -88.719996 }, "geometry": { "type": "Point", "coordinates": [ -88.719996, 37.1824 ] } },
{ "type": "Feature", "properties": { "RCDTS": "070162280160003", "School": "Hillcrest High School", "City": "Country Club Hill", "demSCHOOLlow": 57.8, "ISAT13": " ", "PSAE13": 18.4, "ACT13": 16.6, "LATITUDE": 41.573194, "LONGITUDE": -87.713671 }, "geometry": { "type": "Point", "coordinates": [ -87.713671, 41.573194 ] } },
{ "type": "Feature", "properties": { "RCDTS": "120130350262005", "School": "Lincoln School", "City": "Flora", "demSCHOOLlow": 57.8, "ISAT13": 65.6, "PSAE13": " ", "ACT13": " ", "LATITUDE": 38.664485, "LONGITUDE": -88.525822 }, "geometry": { "type": "Point", "coordinates": [ -88.525822, 38.664485 ] } },
{ "type": "Feature", "properties": { "RCDTS": "320380100262004", "School": "Iroquois West Elem Sch\/Thawville", "City": "Thawville", "demSCHOOLlow": 57.8, "ISAT13": 56.7, "PSAE13": " ", "ACT13": " ", "LATITUDE": 40.676855, "LONGITUDE": -88.114759 }, "geometry": { "type": "Point", "coordinates": [ -88.114759, 40.676855 ] } },
{ "type": "Feature", "properties": { "RCDTS": "150162990252112", "School": "Byrne Elem School", "City": "Chicago", "demSCHOOLlow": 57.9, "ISAT13": 62.7, "PSAE13": " ", "ACT13": " ", "LATITUDE": 41.795383, "LONGITUDE": -87.791553 }, "geometry": { "type": "Point", "coordinates": [ -87.791553, 41.795383 ] } },
{ "type": "Feature", "properties": { "RCDTS": "050160630022006", "School": "V H Nelson Elem School", "City": "Niles", "demSCHOOLlow": 58.0, "ISAT13": 56.3, "PSAE13": " ", "ACT13": " ", "LATITUDE": 42.041969, "LONGITUDE": -87.820953 }, "geometry": { "type": "Point", "coordinates": [ -87.820953, 42.041969 ] } },
{ "type": "Feature", "properties": { "RCDTS": "190220450021007", "School": "Jefferson Middle School", "City": "Villa Park", "demSCHOOLlow": 58.0, "ISAT13": 49.8, "PSAE13": " ", "ACT13": " ", "LATITUDE": 41.897913, "LONGITUDE": -87.986711 }, "geometry": { "type": "Point", "coordinates": [ -87.986711, 41.897913 ] } },
{ "type": "Feature", "properties": { "RCDTS": "450791400262002", "School": "Sparta-Lincoln Middle School", "City": "Sparta", "demSCHOOLlow": 58.0, "ISAT13": 40.4, "PSAE13": " ", "ACT13": " ", "LATITUDE": 38.133864, "LONGITUDE": -89.703505 }, "geometry": { "type": "Point", "coordinates": [ -89.703505, 38.133864 ] } },
{ "type": "Feature", "properties": { "RCDTS": "090100040261005", "School": "Jefferson Middle School", "City": "Champaign", "demSCHOOLlow": 58.1, "ISAT13": 55.6, "PSAE13": " ", "ACT13": " ", "LATITUDE": 40.103213, "LONGITUDE": -88.281299 }, "geometry": { "type": "Point", "coordinates": [ -88.281299, 40.103213 ] } },
{ "type": "Feature", "properties": { "RCDTS": "130581000260002", "School": "Patoka Sr High School", "City": "Patoka", "demSCHOOLlow": 58.1, "ISAT13": " ", "PSAE13": 31.0, "ACT13": 18.9, "LATITUDE": 38.765063, "LONGITUDE": -89.085676 }, "geometry": { "type": "Point", "coordinates": [ -89.085676, 38.765063 ] } },
{ "type": "Feature", "properties": { "RCDTS": "320460010260003", "School": "Momence High School", "City": "Momence", "demSCHOOLlow": 58.1, "ISAT13": " ", "PSAE13": 44.4, "ACT13": 17.7, "LATITUDE": 41.160398, "LONGITUDE": -87.670514 }, "geometry": { "type": "Point", "coordinates": [ -87.670514, 41.160398 ] } },
{ "type": "Feature", "properties": { "RCDTS": "150162990250027", "School": "Lane Technical High School", "City": "Chicago", "demSCHOOLlow": 58.2, "ISAT13": 99.8, "PSAE13": 94.8, "ACT13": 24.3, "LATITUDE": 41.946693, "LONGITUDE": -87.694142 }, "geometry": { "type": "Point", "coordinates": [ -87.694142, 41.946693 ] } },
{ "type": "Feature", "properties": { "RCDTS": "410570110262015", "School": "Lewis & Clark Elem School", "City": "Godfrey", "demSCHOOLlow": 58.2, "ISAT13": 52.0, "PSAE13": " ", "ACT13": " ", "LATITUDE": 38.96701, "LONGITUDE": -90.18088 }, "geometry": { "type": "Point", "coordinates": [ -90.18088, 38.96701 ] } },
{ "type": "Feature", "properties": { "RCDTS": "490810400222022", "School": "George Washington Elem School", "City": "Moline", "demSCHOOLlow": 58.2, "ISAT13": 56.1, "PSAE13": " ", "ACT13": " ", "LATITUDE": 41.497218, "LONGITUDE": -90.479188 }, "geometry": { "type": "Point", "coordinates": [ -90.479188, 41.497218 ] } },
{ "type": "Feature", "properties": { "RCDTS": "030262020260002", "School": "St Elmo Sr High School", "City": "Saint Elmo", "demSCHOOLlow": 58.3, "ISAT13": " ", "PSAE13": 37.5, "ACT13": 18.8, "LATITUDE": 39.035183, "LONGITUDE": -88.851491 }, "geometry": { "type": "Point", "coordinates": [ -88.851491, 39.035183 ] } },
{ "type": "Feature", "properties": { "RCDTS": "050160590042019", "School": "Salt Creek Elem School", "City": "Elk Grove Village", "demSCHOOLlow": 58.3, "ISAT13": 54.3, "PSAE13": " ", "ACT13": " ", "LATITUDE": 42.00302, "LONGITUDE": -87.999648 }, "geometry": { "type": "Point", "coordinates": [ -87.999648, 42.00302 ] } },
{ "type": "Feature", "properties": { "RCDTS": "190220450022011", "School": "Schafer Elem School", "City": "Lombard", "demSCHOOLlow": 58.3, "ISAT13": 53.3, "PSAE13": " ", "ACT13": " ", "LATITUDE": 41.897169, "LONGITUDE": -87.999658 }, "geometry": { "type": "Point", "coordinates": [ -87.999658, 41.897169 ] } },
{ "type": "Feature", "properties": { "RCDTS": "200970050262005", "School": "Jefferson Attendance Center", "City": "Carmi", "demSCHOOLlow": 58.3, "ISAT13": 52.6, "PSAE13": " ", "ACT13": " ", "LATITUDE": 38.095827, "LONGITUDE": -88.166097 }, "geometry": { "type": "Point", "coordinates": [ -88.166097, 38.095827 ] } },
{ "type": "Feature", "properties": { "RCDTS": "050160690021003", "School": "Lincoln Jr High School", "City": "Skokie", "demSCHOOLlow": 58.4, "ISAT13": 57.1, "PSAE13": " ", "ACT13": " ", "LATITUDE": 42.023543, "LONGITUDE": -87.754231 }, "geometry": { "type": "Point", "coordinates": [ -87.754231, 42.023543 ] } },
{ "type": "Feature", "properties": { "RCDTS": "070161220022004", "School": "George W Lieb Elem School", "City": "Bridgeview", "demSCHOOLlow": 58.4, "ISAT13": 77.0, "PSAE13": " ", "ACT13": " ", "LATITUDE": 41.7266, "LONGITUDE": -87.791632 }, "geometry": { "type": "Point", "coordinates": [ -87.791632, 41.7266 ] } },